$GPGGA,100000.000,4330.20220,N,04229.52840,E,1,08,1.0,4388.3,M,6500.0,M,,*63
$GPGGA,100001.000,4330.19136,N,04229.55379,E,1,08,1.0,4387.0,M,6500.0,M,,*66
$GPGGA,100002.000,4330.18127,N,04229.57959,E,1,08,1.0,4383.2,M,6500.0,M,,*68
$GPGGA,100003.000,4330.17055,N,04229.60448,E,1,08,1.0,4379.5,M,6500.0,M,,*69
$GPGGA,100004.000,4330.15888,N,04229.62905,E,1,08,1.0,4376.9,M,6500.0,M,,*61
$GPGGA,100005.000,4330.14810,N,04229.65461,E,1,08,1.0,4370.2,M,6500.0,M,,*65
$GPGGA,100006.000,4330.13601,N,04229.67950,E,1,08,1.0,4370.7,M,6500.0,M,,*67
$GPGGA,100007.000,4330.12435,N,04229.70455,E,1,08,1.0,4369.4,M,6500.0,M,,*67
$GPGGA,100008.000,4330.11283,N,04229.72918,E,1,08,1.0,4381.6,M,6500.0,M,,*62
$GPGGA,100009.000,4330.10143,N,04229.75353,E,1,08,1.0,4387.1,M,6500.0,M,,*6E
$GPGGA,100010.000,4330.09034,N,04229.77960,E,1,08,1.0,4393.9,M,6500.0,M,,*6A
$GPGGA,100011.000,4330.08077,N,04229.80420,E,1,08,1.0,4383.4,M,6500.0,M,,*60
$GPGGA,100012.000,4330.06979,N,04229.82625,E,1,08,1.0,4374.1,M,6500.0,M,,*62
$GPGGA,100013.000,4330.05935,N,04229.84696,E,1,08,1.0,4364.9,M,6500.0,M,,*6F
$GPGGA,100014.000,4330.04925,N,04229.86839,E,1,08,1.0,4361.7,M,6500.0,M,,*6A
$GPGGA,100015.000,4330.03806,N,04229.89076,E,1,08,1.0,4356.3,M,6500.0,M,,*60
$GPGGA,100016.000,4330.02644,N,04229.91422,E,1,08,1.0,4346.6,M,6500.0,M,,*62
$GPGGA,100017.000,4330.01558,N,04229.93724,E,1,08,1.0,4340.2,M,6500.0,M,,*6B
$GPGGA,100018.000,4330.00337,N,04229.95877,E,1,08,1.0,4327.5,M,6500.0,M,,*63
$GPGGA,100019.000,4329.99239,N,04229.97982,E,1,08,1.0,4321.9,M,6500.0,M,,*66
$GPGGA,100020.000,4329.98089,N,04230.00175,E,1,08,1.0,4306.2,M,6500.0,M,,*6C
$GPGGA,100021.000,4329.97040,N,04230.02477,E,1,08,1.0,4284.8,M,6500.0,M,,*63
$GPGGA,100022.000,4329.95930,N,04230.04923,E,1,08,1.0,4274.3,M,6500.0,M,,*62
$GPGGA,100023.000,4329.94740,N,04230.07353,E,1,08,1.0,4266.8,M,6500.0,M,,*6D
$GPGGA,100024.000,4329.93374,N,04230.09717,E,1,08,1.0,4258.1,M,6500.0,M,,*60
$GPGGA,100025.000,4329.92189,N,04230.12145,E,1,08,1.0,4246.8,M,6500.0,M,,*6D
$GPGGA,100026.000,4329.90948,N,04230.14697,E,1,08,1.0,4244.4,M,6500.0,M,,*69
$GPGGA,100027.000,4329.89676,N,04230.17343,E,1,08,1.0,4246.7,M,6500.0,M,,*6C
$GPGGA,100028.000,4329.88521,N,04230.19743,E,1,08,1.0,4249.7,M,6500.0,M,,*66
$GPGGA,100029.000,4329.87219,N,04230.22085,E,1,08,1.0,4254.3,M,6500.0,M,,*69
$GPGGA,100030.000,4329.85951,N,04230.24513,E,1,08,1.0,4262.9,M,6500.0,M,,*67
$GPGGA,100031.000,4329.84624,N,04230.27045,E,1,08,1.0,4268.7,M,6500.0,M,,*6B
$GPGGA,100032.000,4329.83244,N,04230.29669,E,1,08,1.0,4282.2,M,6500.0,M,,*6A
$GPGGA,100033.000,4329.81785,N,04230.32172,E,1,08,1.0,4287.3,M,6500.0,M,,*62
$GPGGA,100034.000,4329.80345,N,04230.34961,E,1,08,1.0,4292.7,M,6500.0,M,,*60
$GPGGA,100035.000,4329.78995,N,04230.37577,E,1,08,1.0,4304.2,M,6500.0,M,,*62
$GPGGA,100036.000,4329.77557,N,04230.40226,E,1,08,1.0,4304.4,M,6500.0,M,,*69
$GPGGA,100037.000,4329.76097,N,04230.42941,E,1,08,1.0,4316.1,M,6500.0,M,,*6E
$GPGGA,100038.000,4329.74715,N,04230.45569,E,1,08,1.0,4326.8,M,6500.0,M,,*65
$GPGGA,100039.000,4329.73420,N,04230.48057,E,1,08,1.0,4330.5,M,6500.0,M,,*69
$GPGGA,100040.000,4329.72146,N,04230.50472,E,1,08,1.0,4333.1,M,6500.0,M,,*6E
$GPGGA,100041.000,4329.70907,N,04230.52691,E,1,08,1.0,4336.1,M,6500.0,M,,*68
$GPGGA,100042.000,4329.69621,N,04230.55049,E,1,08,1.0,4357.7,M,6500.0,M,,*6D
$GPGGA,100043.000,4329.68248,N,04230.57367,E,1,08,1.0,4356.1,M,6500.0,M,,*6C
$GPGGA,100044.000,4329.66932,N,04230.59722,E,1,08,1.0,4356.7,M,6500.0,M,,*6E
$GPGGA,100045.000,4329.65676,N,04230.61824,E,1,08,1.0,4353.0,M,6500.0,M,,*63
$GPGGA,100046.000,4329.64335,N,04230.64156,E,1,08,1.0,4351.9,M,6500.0,M,,*61
$GPGGA,100047.000,4329.63118,N,04230.66520,E,1,08,1.0,4352.1,M,6500.0,M,,*66
$GPGGA,100048.000,4329.61748,N,04230.68690,E,1,08,1.0,4351.0,M,6500.0,M,,*6C
$GPGGA,100049.000,4329.60532,N,04230.71097,E,1,08,1.0,4359.1,M,6500.0,M,,*63
$GPGGA,100050.000,4329.59176,N,04230.73414,E,1,08,1.0,4364.7,M,6500.0,M,,*60
$GPGGA,100051.000,4329.57921,N,04230.75827,E,1,08,1.0,4364.7,M,6500.0,M,,*6F
$GPGGA,100052.000,4329.56552,N,04230.78219,E,1,08,1.0,4368.3,M,6500.0,M,,*67
$GPGGA,100053.000,4329.55144,N,04230.80773,E,1,08,1.0,4377.3,M,6500.0,M,,*66
$GPGGA,100054.000,,,,,0,,,4379.0,M,6500.0,M,,*72
$GPGGA,100055.000,,,,,0,,,4374.1,M,6500.0,M,,*7F
$GPGGA,100056.000,,,,,0,,,4370.5,M,6500.0,M,,*7C
$GPGGA,100057.000,,,,,0,,,4363.0,M,6500.0,M,,*7A
$GPGGA,100058.000,,,,,0,,,4354.4,M,6500.0,M,,*75
$GPGGA,100059.000,,,,,0,,,4344.7,M,6500.0,M,,*76
$GPGGA,100100.000,,,,,0,,,4336.5,M,6500.0,M,,*7C
$GPGGA,100101.000,,,,,0,,,4330.7,M,6500.0,M,,*79
$GPGGA,100102.000,,,,,0,,,4325.5,M,6500.0,M,,*7C
$GPGGA,100103.000,,,,,0,,,4320.7,M,6500.0,M,,*7A
$GPGGA,100104.000,,,,,0,,,4311.9,M,6500.0,M,,*71
$GPGGA,100105.000,,,,,0,,,4306.6,M,6500.0,M,,*79
$GPGGA,100106.000,,,,,0,,,4304.5,M,6500.0,M,,*7B
$GPGGA,100107.000,,,,,0,,,4294.1,M,6500.0,M,,*76
$GPGGA,100108.000,,,,,0,,,4288.5,M,6500.0,M,,*70
$GPGGA,100109.000,,,,,0,,,4286.7,M,6500.0,M,,*7D
$GPGGA,100110.000,,,,,0,,,4283.7,M,6500.0,M,,*70
$GPGGA,100111.000,,,,,0,,,4280.4,M,6500.0,M,,*71
$GPGGA,100112.000,,,,,0,,,4265.7,M,6500.0,M,,*7A
$GPGGA,100113.000,,,,,0,,,4245.9,M,6500.0,M,,*77
$GPGGA,100114.000,,,,,0,,,4221.9,M,6500.0,M,,*72
$GPGGA,100115.000,,,,,0,,,4208.7,M,6500.0,M,,*76
$GPGGA,100116.000,,,,,0,,,4197.1,M,6500.0,M,,*76
$GPGGA,100117.000,,,,,0,,,4183.5,M,6500.0,M,,*76
$GPGGA,100118.000,,,,,0,,,4171.3,M,6500.0,M,,*72
$GPGGA,100119.000,,,,,0,,,4162.3,M,6500.0,M,,*71
$GPGGA,100120.000,,,,,0,,,4157.3,M,6500.0,M,,*7D
$GPGGA,100121.000,,,,,0,,,4149.0,M,6500.0,M,,*70
$GPGGA,100122.000,,,,,0,,,4138.4,M,6500.0,M,,*71
$GPGGA,100123.000,,,,,0,,,4126.1,M,6500.0,M,,*7A
$GPGGA,100124.000,,,,,0,,,4123.9,M,6500.0,M,,*70
$GPGGA,100125.000,,,,,0,,,4122.5,M,6500.0,M,,*7C
$GPGGA,100126.000,,,,,0,,,4124.1,M,6500.0,M,,*7D
$GPGGA,100127.000,,,,,0,,,4122.8,M,6500.0,M,,*73
$GPGGA,100128.000,,,,,0,,,4131.5,M,6500.0,M,,*73
$GPGGA,100129.000,,,,,0,,,4128.4,M,6500.0,M,,*7B
$GPGGA,100130.000,,,,,0,,,4135.0,M,6500.0,M,,*7B
$GPGGA,100131.000,,,,,0,,,4135.4,M,6500.0,M,,*7E
$GPGGA,100132.000,,,,,0,,,4147.7,M,6500.0,M,,*7B
$GPGGA,100133.000,,,,,0,,,4151.5,M,6500.0,M,,*7F
$GPGGA,100134.000,,,,,0,,,4152.2,M,6500.0,M,,*7C
$GPGGA,100135.000,,,,,0,,,4164.9,M,6500.0,M,,*73
$GPGGA,100136.000,,,,,0,,,4178.2,M,6500.0,M,,*76
$GPGGA,100137.000,,,,,0,,,4192.1,M,6500.0,M,,*70
$GPGGA,100138.000,,,,,0,,,4196.1,M,6500.0,M,,*7B
$GPGGA,100139.000,,,,,0,,,4196.2,M,6500.0,M,,*79
$GPGGA,100140.000,,,,,0,,,4196.9,M,6500.0,M,,*7C
$GPGGA,100141.000,,,,,0,,,4190.6,M,6500.0,M,,*74
$GPGGA,100142.000,,,,,0,,,4188.2,M,6500.0,M,,*7A
$GPGGA,100143.000,,,,,0,,,4182.5,M,6500.0,M,,*76
$GPGGA,100144.000,,,,,0,,,4181.7,M,6500.0,M,,*70
$GPGGA,100145.000,,,,,0,,,4176.3,M,6500.0,M,,*7D
$GPGGA,100146.000,,,,,0,,,4196.9,M,6500.0,M,,*7A
$GPGGA,100147.000,,,,,0,,,4216.5,M,6500.0,M,,*7C
$GPGGA,100148.000,,,,,0,,,4247.0,M,6500.0,M,,*72
$GPGGA,100149.000,,,,,0,,,4261.1,M,6500.0,M,,*76
$GPGGA,100150.000,,,,,0,,,4262.7,M,6500.0,M,,*7B
$GPGGA,100151.000,,,,,0,,,4258.1,M,6500.0,M,,*75
$GPGGA,100152.000,,,,,0,,,4255.6,M,6500.0,M,,*7C
$GPGGA,100153.000,,,,,0,,,4247.3,M,6500.0,M,,*7B
$GPGGA,100154.000,,,,,0,,,4255.2,M,6500.0,M,,*7E
$GPGGA,100155.000,,,,,0,,,4282.5,M,6500.0,M,,*72
$GPGGA,100156.000,,,,,0,,,4304.0,M,6500.0,M,,*7B
$GPGGA,100157.000,,,,,0,,,4336.2,M,6500.0,M,,*79
$GPGGA,100158.000,,,,,0,,,4370.9,M,6500.0,M,,*7F
$GPGGA,100159.000,,,,,0,,,4378.3,M,6500.0,M,,*7C
$GPGGA,100200.000,,,,,0,,,4390.1,M,6500.0,M,,*77
$GPGGA,100201.000,,,,,0,,,4404.8,M,6500.0,M,,*75
$GPGGA,100202.000,,,,,0,,,4413.8,M,6500.0,M,,*70
$GPGGA,100203.000,,,,,0,,,4428.1,M,6500.0,M,,*70
$GPGGA,100204.000,,,,,0,,,4432.0,M,6500.0,M,,*7D
$GPGGA,100205.000,,,,,0,,,4442.6,M,6500.0,M,,*7D
$GPGGA,100206.000,,,,,0,,,4450.7,M,6500.0,M,,*7C
$GPGGA,100207.000,,,,,0,,,4435.3,M,6500.0,M,,*7A
$GPGGA,100208.000,,,,,0,,,4434.6,M,6500.0,M,,*71
$GPGGA,100209.000,,,,,0,,,4446.8,M,6500.0,M,,*7B
$GPGGA,100210.000,,,,,0,,,4463.2,M,6500.0,M,,*7E
$GPGGA,100211.000,,,,,0,,,4450.0,M,6500.0,M,,*7D
$GPGGA,100212.000,,,,,0,,,4412.0,M,6500.0,M,,*78
$GPGGA,100213.000,,,,,0,,,4391.2,M,6500.0,M,,*77
$GPGGA,100214.000,,,,,0,,,4393.8,M,6500.0,M,,*78
$GPGGA,100215.000,,,,,0,,,4405.1,M,6500.0,M,,*78
$GPGGA,100216.000,,,,,0,,,4405.0,M,6500.0,M,,*7A
$GPGGA,100217.000,,,,,0,,,4395.3,M,6500.0,M,,*76
$GPGGA,100218.000,,,,,0,,,4375.9,M,6500.0,M,,*7D
$GPGGA,100219.000,,,,,0,,,4347.8,M,6500.0,M,,*7C
$GPGGA,100220.000,,,,,0,,,4319.2,M,6500.0,M,,*77
$GPGGA,100221.000,,,,,0,,,4300.4,M,6500.0,M,,*78
$GPGGA,100222.000,,,,,0,,,4280.2,M,6500.0,M,,*74
$GPGGA,100223.000,,,,,0,,,4271.8,M,6500.0,M,,*71
$GPGGA,100224.000,,,,,0,,,4280.2,M,6500.0,M,,*72
$GPGGA,100225.000,,,,,0,,,4267.0,M,6500.0,M,,*78
$GPGGA,100226.000,,,,,0,,,4259.4,M,6500.0,M,,*72
$GPGGA,100227.000,,,,,0,,,4261.3,M,6500.0,M,,*7F
$GPGGA,100228.000,,,,,0,,,4281.3,M,6500.0,M,,*7E
$GPGGA,100229.000,,,,,0,,,4285.9,M,6500.0,M,,*71
$GPGGA,100230.000,,,,,0,,,4297.1,M,6500.0,M,,*72
$GPGGA,100231.000,,,,,0,,,4295.6,M,6500.0,M,,*76
$GPGGA,100232.000,,,,,0,,,4289.9,M,6500.0,M,,*77
$GPGGA,100233.000,,,,,0,,,4282.0,M,6500.0,M,,*74
$GPGGA,100234.000,,,,,0,,,4275.1,M,6500.0,M,,*7A
$GPGGA,100235.000,,,,,0,,,4264.7,M,6500.0,M,,*7D
$GPGGA,100236.000,,,,,0,,,4252.6,M,6500.0,M,,*7A
$GPGGA,100237.000,,,,,0,,,4238.5,M,6500.0,M,,*74
$GPGGA,100238.000,,,,,0,,,4221.7,M,6500.0,M,,*71
$GPGGA,100239.000,,,,,0,,,4211.7,M,6500.0,M,,*73
$GPGGA,100240.000,,,,,0,,,4204.7,M,6500.0,M,,*79
$GPGGA,100241.000,,,,,0,,,4201.9,M,6500.0,M,,*73
$GPGGA,100242.000,,,,,0,,,4187.4,M,6500.0,M,,*70
$GPGGA,100243.000,,,,,0,,,4177.5,M,6500.0,M,,*7F
$GPGGA,100244.000,,,,,0,,,4167.4,M,6500.0,M,,*78
$GPGGA,100245.000,,,,,0,,,4159.1,M,6500.0,M,,*71
$GPGGA,100246.000,,,,,0,,,4145.5,M,6500.0,M,,*7B
$GPGGA,100247.000,,,,,0,,,4144.5,M,6500.0,M,,*7B
$GPGGA,100248.000,,,,,0,,,4150.4,M,6500.0,M,,*70
$GPGGA,100249.000,,,,,0,,,4151.0,M,6500.0,M,,*74
$GPGGA,100250.000,,,,,0,,,4150.0,M,6500.0,M,,*7D
$GPGGA,100251.000,,,,,0,,,4149.2,M,6500.0,M,,*76
$GPGGA,100252.000,,,,,0,,,4154.0,M,6500.0,M,,*7B
$GPGGA,100253.000,,,,,0,,,4151.9,M,6500.0,M,,*76
$GPGGA,100254.000,,,,,0,,,4143.1,M,6500.0,M,,*7A
$GPGGA,100255.000,,,,,0,,,4129.0,M,6500.0,M,,*76
$GPGGA,100256.000,,,,,0,,,4120.1,M,6500.0,M,,*7D
$GPGGA,100257.000,,,,,0,,,4129.2,M,6500.0,M,,*76
$GPGGA,100258.000,,,,,0,,,4138.9,M,6500.0,M,,*72
$GPGGA,100259.000,,,,,0,,,4149.3,M,6500.0,M,,*7F
$GPGGA,100300.000,,,,,0,,,4149.5,M,6500.0,M,,*74
$GPGGA,100301.000,4327.86271,N,04234.15719,E,1,08,1.0,4146.3,M,6500.0,M,,*63
$GPGGA,100302.000,4327.85057,N,04234.17564,E,1,08,1.0,4147.7,M,6500.0,M,,*6A
$GPGGA,100303.000,4327.83890,N,04234.19476,E,1,08,1.0,4146.8,M,6500.0,M,,*6C
$GPGGA,100304.000,4327.82771,N,04234.21407,E,1,08,1.0,4153.5,M,6500.0,M,,*6E
$GPGGA,100305.000,4327.81478,N,04234.23400,E,1,08,1.0,4150.0,M,6500.0,M,,*65
$GPGGA,100306.000,4327.79985,N,04234.25600,E,1,08,1.0,4152.4,M,6500.0,M,,*6C
$GPGGA,100307.000,4327.78669,N,04234.27828,E,1,08,1.0,4153.7,M,6500.0,M,,*65
$GPGGA,100308.000,4327.77348,N,04234.29885,E,1,08,1.0,4155.0,M,6500.0,M,,*6B
$GPGGA,100309.000,4327.76010,N,04234.31641,E,1,08,1.0,4152.9,M,6500.0,M,,*64
$GPGGA,100310.000,4327.74844,N,04234.33431,E,1,08,1.0,4147.6,M,6500.0,M,,*6B
$GPGGA,100311.000,4327.73659,N,04234.35062,E,1,08,1.0,4139.2,M,6500.0,M,,*66
$GPGGA,100312.000,4327.72378,N,04234.36599,E,1,08,1.0,4139.0,M,6500.0,M,,*62
$GPGGA,100313.000,4327.71190,N,04234.38303,E,1,08,1.0,4148.1,M,6500.0,M,,*68
$GPGGA,100314.000,4327.69858,N,04234.39834,E,1,08,1.0,4151.8,M,6500.0,M,,*64
$GPGGA,100315.000,4327.68559,N,04234.41422,E,1,08,1.0,4153.4,M,6500.0,M,,*62
$GPGGA,100316.000,4327.67312,N,04234.42878,E,1,08,1.0,4156.1,M,6500.0,M,,*67
$GPGGA,100317.000,4327.66010,N,04234.44393,E,1,08,1.0,4159.6,M,6500.0,M,,*66
$GPGGA,100318.000,4327.64597,N,04234.45918,E,1,08,1.0,4162.3,M,6500.0,M,,*64
$GPGGA,100319.000,4327.63116,N,04234.47807,E,1,08,1.0,4167.0,M,6500.0,M,,*64
$GPGGA,100320.000,4327.61453,N,04234.49983,E,1,08,1.0,4170.2,M,6500.0,M,,*6F
$GPGGA,100321.000,4327.59824,N,04234.52352,E,1,08,1.0,4162.3,M,6500.0,M,,*67
$GPGGA,100322.000,4327.58200,N,04234.54576,E,1,08,1.0,4150.5,M,6500.0,M,,*68
$GPGGA,100323.000,4327.56471,N,04234.56640,E,1,08,1.0,4147.7,M,6500.0,M,,*67
$GPGGA,100324.000,4327.54812,N,04234.58717,E,1,08,1.0,4138.7,M,6500.0,M,,*6E
$GPGGA,100325.000,4327.53183,N,04234.60699,E,1,08,1.0,4135.3,M,6500.0,M,,*6C
$GPGGA,100326.000,4327.51533,N,04234.62638,E,1,08,1.0,4134.5,M,6500.0,M,,*6C
$GPGGA,100327.000,4327.49877,N,04234.64386,E,1,08,1.0,4135.6,M,6500.0,M,,*6D
$GPGGA,100328.000,4327.48172,N,04234.66103,E,1,08,1.0,4130.2,M,6500.0,M,,*63
$GPGGA,100329.000,4327.46480,N,04234.67759,E,1,08,1.0,4132.3,M,6500.0,M,,*6F
$GPGGA,100330.000,4327.44876,N,04234.69192,E,1,08,1.0,4130.8,M,6500.0,M,,*66
$GPGGA,100331.000,4327.43263,N,04234.70617,E,1,08,1.0,4128.3,M,6500.0,M,,*6E
$GPGGA,100332.000,4327.41579,N,04234.72018,E,1,08,1.0,4130.5,M,6500.0,M,,*67
$GPGGA,100333.000,4327.39904,N,04234.73529,E,1,08,1.0,4134.8,M,6500.0,M,,*60
$GPGGA,100334.000,4327.38101,N,04234.75151,E,1,08,1.0,4142.4,M,6500.0,M,,*6B
$GPGGA,100335.000,4327.36284,N,04234.76601,E,1,08,1.0,4143.9,M,6500.0,M,,*67
$GPGGA,100336.000,4327.34443,N,04234.78270,E,1,08,1.0,4142.7,M,6500.0,M,,*68
$GPGGA,100337.000,4327.32537,N,04234.79842,E,1,08,1.0,4133.4,M,6500.0,M,,*62
$GPGGA,100338.000,4327.30566,N,04234.81552,E,1,08,1.0,4123.0,M,6500.0,M,,*65
