$GPGGA,100000.000,4330.20220,N,04229.52840,E,1,08,1.0,4385.0,M,6500.0,M,,*6D
$GPGGA,100000.200,4330.19875,N,04229.53191,E,1,08,1.0,4387.3,M,6500.0,M,,*6A
$GPGGA,100000.400,4330.19531,N,04229.53548,E,1,08,1.0,4386.3,M,6500.0,M,,*60
$GPGGA,100000.600,4330.19187,N,04229.53896,E,1,08,1.0,4386.4,M,6500.0,M,,*62
$GPGGA,100000.800,4330.18845,N,04229.54246,E,1,08,1.0,4383.4,M,6500.0,M,,*6F
$GPGGA,100001.000,4330.18501,N,04229.54593,E,1,08,1.0,4380.2,M,6500.0,M,,*61
$GPGGA,100001.200,4330.18173,N,04229.54905,E,1,08,1.0,4386.7,M,6500.0,M,,*62
$GPGGA,100001.400,4330.17842,N,04229.55228,E,1,08,1.0,4381.7,M,6500.0,M,,*62
$GPGGA,100001.600,4330.17515,N,04229.55551,E,1,08,1.0,4383.0,M,6500.0,M,,*63
$GPGGA,100001.800,4330.17189,N,04229.55874,E,1,08,1.0,4379.9,M,6500.0,M,,*6A
$GPGGA,100002.000,4330.16865,N,04229.56189,E,1,08,1.0,4384.3,M,6500.0,M,,*6B
$GPGGA,100002.200,4330.16536,N,04229.56524,E,1,08,1.0,4380.4,M,6500.0,M,,*62
$GPGGA,100002.400,4330.16196,N,04229.56864,E,1,08,1.0,4380.2,M,6500.0,M,,*65
$GPGGA,100002.600,4330.15868,N,04229.57182,E,1,08,1.0,4377.8,M,6500.0,M,,*6E
$GPGGA,100002.800,4330.15532,N,04229.57520,E,1,08,1.0,4373.7,M,6500.0,M,,*65
$GPGGA,100003.000,4330.15186,N,04229.57885,E,1,08,1.0,4378.4,M,6500.0,M,,*6D
$GPGGA,100003.200,4330.14837,N,04229.58256,E,1,08,1.0,4370.4,M,6500.0,M,,*6E
$GPGGA,100003.400,4330.14493,N,04229.58617,E,1,08,1.0,4373.9,M,6500.0,M,,*65
$GPGGA,100003.600,4330.14148,N,04229.58971,E,1,08,1.0,4374.2,M,6500.0,M,,*67
$GPGGA,100003.800,4330.13799,N,04229.59346,E,1,08,1.0,4371.3,M,6500.0,M,,*6F
$GPGGA,100004.000,4330.13442,N,04229.59728,E,1,08,1.0,4372.6,M,6500.0,M,,*6F
$GPGGA,100004.200,4330.13091,N,04229.60110,E,1,08,1.0,4373.8,M,6500.0,M,,*6F
$GPGGA,100004.400,4330.12743,N,04229.60482,E,1,08,1.0,4372.4,M,6500.0,M,,*63
$GPGGA,100004.600,4330.12396,N,04229.60856,E,1,08,1.0,4369.9,M,6500.0,M,,*6F
$GPGGA,100004.800,4330.12047,N,04229.61224,E,1,08,1.0,4366.8,M,6500.0,M,,*6E
$GPGGA,100005.000,4330.11703,N,04229.61580,E,1,08,1.0,4368.7,M,6500.0,M,,*6B
$GPGGA,100005.200,4330.11361,N,04229.61944,E,1,08,1.0,4362.2,M,6500.0,M,,*62
$GPGGA,100005.400,4330.11023,N,04229.62303,E,1,08,1.0,4365.8,M,6500.0,M,,*66
$GPGGA,100005.600,4330.10678,N,04229.62677,E,1,08,1.0,4362.1,M,6500.0,M,,*65
$GPGGA,100005.800,4330.10330,N,04229.63055,E,1,08,1.0,4363.6,M,6500.0,M,,*63
$GPGGA,100006.000,4330.09980,N,04229.63439,E,1,08,1.0,4363.2,M,6500.0,M,,*6B
$GPGGA,100006.200,4330.09636,N,04229.63811,E,1,08,1.0,4357.1,M,6500.0,M,,*69
$GPGGA,100006.400,4330.09292,N,04229.64186,E,1,08,1.0,4361.6,M,6500.0,M,,*67
$GPGGA,100006.600,4330.08950,N,04229.64559,E,1,08,1.0,4356.6,M,6500.0,M,,*63
$GPGGA,100006.800,4330.08612,N,04229.64927,E,1,08,1.0,4360.9,M,6500.0,M,,*6B
$GPGGA,100007.000,4330.08273,N,04229.65298,E,1,08,1.0,4358.9,M,6500.0,M,,*64
$GPGGA,100007.200,4330.07939,N,04229.65660,E,1,08,1.0,4360.8,M,6500.0,M,,*65
$GPGGA,100007.400,4330.07601,N,04229.66032,E,1,08,1.0,4357.9,M,6500.0,M,,*60
$GPGGA,100007.600,4330.07267,N,04229.66392,E,1,08,1.0,4358.6,M,6500.0,M,,*6F
$GPGGA,100007.800,4330.06939,N,04229.66754,E,1,08,1.0,4363.5,M,6500.0,M,,*65
$GPGGA,100008.000,4330.06610,N,04229.67114,E,1,08,1.0,4362.2,M,6500.0,M,,*63
$GPGGA,100008.200,4330.06278,N,04229.67481,E,1,08,1.0,4364.3,M,6500.0,M,,*65
$GPGGA,100008.400,4330.05947,N,04229.67850,E,1,08,1.0,4361.7,M,6500.0,M,,*66
$GPGGA,100008.600,4330.05611,N,04229.68232,E,1,08,1.0,4369.4,M,6500.0,M,,*62
$GPGGA,100008.800,4330.05269,N,04229.68627,E,1,08,1.0,4367.5,M,6500.0,M,,*68
$GPGGA,100009.000,4330.04929,N,04229.69012,E,1,08,1.0,4370.9,M,6500.0,M,,*64
$GPGGA,100009.200,4330.04592,N,04229.69395,E,1,08,1.0,4371.1,M,6500.0,M,,*6F
$GPGGA,100009.400,4330.04261,N,04229.69774,E,1,08,1.0,4375.0,M,6500.0,M,,*6C
$GPGGA,100009.600,4330.03938,N,04229.70138,E,1,08,1.0,4377.1,M,6500.0,M,,*6B
$GPGGA,100009.800,4330.03621,N,04229.70491,E,1,08,1.0,4378.9,M,6500.0,M,,*63
$GPGGA,100010.000,4330.03311,N,04229.70831,E,1,08,1.0,4380.8,M,6500.0,M,,*65
$GPGGA,100010.200,4330.02998,N,04229.71170,E,1,08,1.0,4379.6,M,6500.0,M,,*68
$GPGGA,100010.400,4330.02696,N,04229.71495,E,1,08,1.0,4380.9,M,6500.0,M,,*68
$GPGGA,100010.600,4330.02392,N,04229.71833,E,1,08,1.0,4380.8,M,6500.0,M,,*6A
$GPGGA,100010.800,4330.02080,N,04229.72184,E,1,08,1.0,4384.1,M,6500.0,M,,*6F
$GPGGA,100011.000,4330.01772,N,04229.72528,E,1,08,1.0,4382.2,M,6500.0,M,,*68
$GPGGA,100011.200,4330.01457,N,04229.72895,E,1,08,1.0,4383.6,M,6500.0,M,,*60
$GPGGA,100011.400,4330.01141,N,04229.73264,E,1,08,1.0,4378.4,M,6500.0,M,,*67
$GPGGA,100011.600,4330.00833,N,04229.73624,E,1,08,1.0,4378.7,M,6500.0,M,,*6B
$GPGGA,100011.800,4330.00529,N,04229.73969,E,1,08,1.0,4377.0,M,6500.0,M,,*6D
$GPGGA,100012.000,4330.00222,N,04229.74322,E,1,08,1.0,4373.9,M,6500.0,M,,*65
$GPGGA,100012.200,4329.99914,N,04229.74693,E,1,08,1.0,4371.5,M,6500.0,M,,*60
$GPGGA,100012.400,4329.99599,N,04229.75074,E,1,08,1.0,4374.4,M,6500.0,M,,*65
$GPGGA,100012.600,4329.99285,N,04229.75460,E,1,08,1.0,4372.8,M,6500.0,M,,*66
$GPGGA,100012.800,4329.98971,N,04229.75847,E,1,08,1.0,4368.9,M,6500.0,M,,*6A
$GPGGA,100013.000,4329.98661,N,04229.76227,E,1,08,1.0,4370.2,M,6500.0,M,,*60
$GPGGA,100013.200,4329.98356,N,04229.76599,E,1,08,1.0,4366.3,M,6500.0,M,,*67
$GPGGA,100013.400,4329.98051,N,04229.76973,E,1,08,1.0,4368.3,M,6500.0,M,,*63
$GPGGA,100013.600,4329.97750,N,04229.77346,E,1,08,1.0,4367.0,M,6500.0,M,,*69
$GPGGA,100013.800,4329.97443,N,04229.77730,E,1,08,1.0,4371.1,M,6500.0,M,,*65
$GPGGA,100014.000,4329.97137,N,04229.78119,E,1,08,1.0,4364.0,M,6500.0,M,,*6B
$GPGGA,100014.200,4329.96827,N,04229.78523,E,1,08,1.0,4363.3,M,6500.0,M,,*69
$GPGGA,100014.400,4329.96527,N,04229.78907,E,1,08,1.0,4364.3,M,6500.0,M,,*6F
$GPGGA,100014.600,4329.96220,N,04229.79304,E,1,08,1.0,4364.3,M,6500.0,M,,*65
$GPGGA,100014.800,4329.95917,N,04229.79693,E,1,08,1.0,4365.3,M,6500.0,M,,*6D
$GPGGA,100015.000,4329.95627,N,04229.80068,E,1,08,1.0,4362.5,M,6500.0,M,,*6D
$GPGGA,100015.200,4329.95330,N,04229.80450,E,1,08,1.0,4360.5,M,6500.0,M,,*61
$GPGGA,100015.400,4329.95042,N,04229.80826,E,1,08,1.0,4362.3,M,6500.0,M,,*68
$GPGGA,100015.600,4329.94756,N,04229.81205,E,1,08,1.0,4358.2,M,6500.0,M,,*6B
$GPGGA,100015.800,4329.94465,N,04229.81593,E,1,08,1.0,4359.1,M,6500.0,M,,*6C
$GPGGA,100016.000,4329.94172,N,04229.81989,E,1,08,1.0,4354.9,M,6500.0,M,,*66
$GPGGA,100016.200,4329.93879,N,04229.82386,E,1,08,1.0,4355.0,M,6500.0,M,,*6F
$GPGGA,100016.400,4329.93579,N,04229.82796,E,1,08,1.0,4356.9,M,6500.0,M,,*6B
$GPGGA,100016.600,4329.93281,N,04229.83216,E,1,08,1.0,4352.5,M,6500.0,M,,*6D
$GPGGA,100016.800,4329.92976,N,04229.83658,E,1,08,1.0,4351.6,M,6500.0,M,,*6F
$GPGGA,100017.000,4329.92662,N,04229.84120,E,1,08,1.0,4350.7,M,6500.0,M,,*63
$GPGGA,100017.200,4329.92348,N,04229.84587,E,1,08,1.0,4352.0,M,6500.0,M,,*60
$GPGGA,100017.400,4329.92047,N,04229.85035,E,1,08,1.0,4346.0,M,6500.0,M,,*62
$GPGGA,100017.600,4329.91746,N,04229.85486,E,1,08,1.0,4348.4,M,6500.0,M,,*63
$GPGGA,100017.800,4329.91435,N,04229.85960,E,1,08,1.0,4344.0,M,6500.0,M,,*67
$GPGGA,100018.000,4329.91127,N,04229.86434,E,1,08,1.0,4340.5,M,6500.0,M,,*68
$GPGGA,100018.200,4329.90814,N,04229.86923,E,1,08,1.0,4344.0,M,6500.0,M,,*68
$GPGGA,100018.400,4329.90496,N,04229.87428,E,1,08,1.0,4343.3,M,6500.0,M,,*6B
$GPGGA,100018.600,4329.90179,N,04229.87942,E,1,08,1.0,4338.5,M,6500.0,M,,*66
$GPGGA,100018.800,4329.89862,N,04229.88452,E,1,08,1.0,4340.1,M,6500.0,M,,*6B
$GPGGA,100019.000,4329.89556,N,04229.88947,E,1,08,1.0,4333.1,M,6500.0,M,,*65
$GPGGA,100019.200,4329.89248,N,04229.89443,E,1,08,1.0,4335.9,M,6500.0,M,,*69
$GPGGA,100019.400,4329.88952,N,04229.89922,E,1,08,1.0,4333.2,M,6500.0,M,,*69
$GPGGA,100019.600,4329.88661,N,04229.90392,E,1,08,1.0,4329.4,M,6500.0,M,,*60
$GPGGA,100019.800,4329.88364,N,04229.90881,E,1,08,1.0,4321.4,M,6500.0,M,,*6F
$GPGGA,100020.000,4329.88075,N,04229.91359,E,1,08,1.0,4323.0,M,6500.0,M,,*67
$GPGGA,100020.200,4329.87788,N,04229.91831,E,1,08,1.0,4318.8,M,6500.0,M,,*6A
$GPGGA,100020.400,4329.87503,N,04229.92307,E,1,08,1.0,4314.8,M,6500.0,M,,*6C
$GPGGA,100020.600,4329.87219,N,04229.92788,E,1,08,1.0,4315.1,M,6500.0,M,,*69
$GPGGA,100020.800,4329.86928,N,04229.93296,E,1,08,1.0,4315.6,M,6500.0,M,,*63
$GPGGA,100021.000,4329.86643,N,04229.93795,E,1,08,1.0,4312.2,M,6500.0,M,,*6D
$GPGGA,100021.200,4329.86353,N,04229.94307,E,1,08,1.0,4310.7,M,6500.0,M,,*64
$GPGGA,100021.400,4329.86064,N,04229.94816,E,1,08,1.0,4307.5,M,6500.0,M,,*6A
$GPGGA,100021.600,4329.85777,N,04229.95329,E,1,08,1.0,4305.7,M,6500.0,M,,*68
$GPGGA,100021.800,4329.85492,N,04229.95846,E,1,08,1.0,4302.7,M,6500.0,M,,*6B
$GPGGA,100022.000,4329.85209,N,04229.96356,E,1,08,1.0,4299.5,M,6500.0,M,,*6C
$GPGGA,100022.200,4329.84926,N,04229.96880,E,1,08,1.0,4297.8,M,6500.0,M,,*6A
$GPGGA,100022.400,4329.84654,N,04229.97386,E,1,08,1.0,4296.2,M,6500.0,M,,*61
$GPGGA,100022.600,4329.84384,N,04229.97898,E,1,08,1.0,4289.6,M,6500.0,M,,*65
$GPGGA,100022.800,4329.84115,N,04229.98407,E,1,08,1.0,4284.1,M,6500.0,M,,*6E
$GPGGA,100023.000,4329.83852,N,04229.98896,E,1,08,1.0,4283.1,M,6500.0,M,,*69
$GPGGA,100023.200,4329.83588,N,04229.99397,E,1,08,1.0,4278.9,M,6500.0,M,,*66
$GPGGA,100023.400,4329.83326,N,04229.99902,E,1,08,1.0,4274.6,M,6500.0,M,,*67
$GPGGA,100023.600,4329.83066,N,04230.00409,E,1,08,1.0,4273.6,M,6500.0,M,,*6B
$GPGGA,100023.800,4329.82810,N,04230.00913,E,1,08,1.0,4269.4,M,6500.0,M,,*62
$GPGGA,100024.000,4329.82559,N,04230.01404,E,1,08,1.0,4267.1,M,6500.0,M,,*6C
$GPGGA,100024.200,4329.82312,N,04230.01898,E,1,08,1.0,4264.5,M,6500.0,M,,*69
$GPGGA,100024.400,4329.82067,N,04230.02393,E,1,08,1.0,4262.6,M,6500.0,M,,*68
$GPGGA,100024.600,4329.81812,N,04230.02906,E,1,08,1.0,4260.3,M,6500.0,M,,*62
$GPGGA,100024.800,4329.81559,N,04230.03414,E,1,08,1.0,4257.6,M,6500.0,M,,*60
$GPGGA,100025.000,4329.81313,N,04230.03933,E,1,08,1.0,4254.7,M,6500.0,M,,*6B
$GPGGA,100025.200,4329.81070,N,04230.04446,E,1,08,1.0,4252.1,M,6500.0,M,,*67
$GPGGA,100025.400,4329.80828,N,04230.04961,E,1,08,1.0,4250.4,M,6500.0,M,,*6A
$GPGGA,100025.600,4329.80597,N,04230.05454,E,1,08,1.0,4247.1,M,6500.0,M,,*68
$GPGGA,100025.800,4329.80371,N,04230.05949,E,1,08,1.0,4248.1,M,6500.0,M,,*66
$GPGGA,100026.000,4329.80144,N,04230.06447,E,1,08,1.0,4244.8,M,6500.0,M,,*6C
$GPGGA,100026.200,4329.79919,N,04230.06938,E,1,08,1.0,4243.0,M,6500.0,M,,*62
$GPGGA,100026.400,4329.79705,N,04230.07419,E,1,08,1.0,4243.1,M,6500.0,M,,*69
$GPGGA,100026.600,4329.79494,N,04230.07896,E,1,08,1.0,4242.3,M,6500.0,M,,*68
$GPGGA,100026.800,4329.79275,N,04230.08388,E,1,08,1.0,4239.3,M,6500.0,M,,*68
$GPGGA,100027.000,4329.79062,N,04230.08881,E,1,08,1.0,4241.3,M,6500.0,M,,*68
$GPGGA,100027.200,4329.78842,N,04230.09393,E,1,08,1.0,4237.5,M,6500.0,M,,*6F
$GPGGA,100027.400,4329.78625,N,04230.09911,E,1,08,1.0,4236.4,M,6500.0,M,,*66
$GPGGA,100027.600,4329.78409,N,04230.10431,E,1,08,1.0,4235.4,M,6500.0,M,,*6C
$GPGGA,100027.800,4329.78189,N,04230.10966,E,1,08,1.0,4234.4,M,6500.0,M,,*61
$GPGGA,100028.000,4329.77974,N,04230.11501,E,1,08,1.0,4233.9,M,6500.0,M,,*65
$GPGGA,100028.200,4329.77767,N,04230.12022,E,1,08,1.0,4231.7,M,6500.0,M,,*60
$GPGGA,100028.400,4329.77559,N,04230.12544,E,1,08,1.0,4230.3,M,6500.0,M,,*69
$GPGGA,100028.600,4329.77346,N,04230.13081,E,1,08,1.0,4230.6,M,6500.0,M,,*6B
$GPGGA,100028.800,4329.77135,N,04230.13627,E,1,08,1.0,4227.6,M,6500.0,M,,*6F
$GPGGA,100029.000,4329.76922,N,04230.14177,E,1,08,1.0,4226.0,M,6500.0,M,,*6B
$GPGGA,100029.200,4329.76709,N,04230.14726,E,1,08,1.0,4225.9,M,6500.0,M,,*66
$GPGGA,100029.400,4329.76504,N,04230.15266,E,1,08,1.0,4224.7,M,6500.0,M,,*60
$GPGGA,100029.600,4329.76301,N,04230.15810,E,1,08,1.0,4218.0,M,6500.0,M,,*62
$GPGGA,100029.800,4329.76113,N,04230.16326,E,1,08,1.0,4224.7,M,6500.0,M,,*68
$GPGGA,100030.000,4329.75926,N,04230.16851,E,1,08,1.0,4223.5,M,6500.0,M,,*6B
$GPGGA,100030.200,4329.75733,N,04230.17396,E,1,08,1.0,4219.8,M,6500.0,M,,*66
$GPGGA,100030.400,4329.75549,N,04230.17923,E,1,08,1.0,4217.5,M,6500.0,M,,*68
$GPGGA,100030.600,4329.75369,N,04230.18440,E,1,08,1.0,4222.2,M,6500.0,M,,*68
$GPGGA,100030.800,4329.75187,N,04230.18966,E,1,08,1.0,4221.4,M,6500.0,M,,*68
$GPGGA,100031.000,4329.75018,N,04230.19469,E,1,08,1.0,4222.8,M,6500.0,M,,*6A
$GPGGA,100031.200,4329.74855,N,04230.19961,E,1,08,1.0,4222.2,M,6500.0,M,,*67
$GPGGA,100031.400,4329.74691,N,04230.20461,E,1,08,1.0,4227.3,M,6500.0,M,,*64
$GPGGA,100031.600,4329.74542,N,04230.20942,E,1,08,1.0,4224.1,M,6500.0,M,,*66
$GPGGA,100031.800,4329.74384,N,04230.21435,E,1,08,1.0,4226.0,M,6500.0,M,,*6B
$GPGGA,100032.000,4329.74229,N,04230.21928,E,1,08,1.0,4227.4,M,6500.0,M,,*62
$GPGGA,100032.200,4329.74075,N,04230.22426,E,1,08,1.0,4231.2,M,6500.0,M,,*6A
$GPGGA,100032.400,4329.73924,N,04230.22922,E,1,08,1.0,4231.1,M,6500.0,M,,*6C
$GPGGA,100032.600,4329.73781,N,04230.23413,E,1,08,1.0,4233.6,M,6500.0,M,,*64
$GPGGA,100032.800,4329.73629,N,04230.23926,E,1,08,1.0,4234.4,M,6500.0,M,,*67
$GPGGA,100033.000,4329.73477,N,04230.24449,E,1,08,1.0,4236.1,M,6500.0,M,,*63
$GPGGA,100033.200,4329.73323,N,04230.24978,E,1,08,1.0,4239.8,M,6500.0,M,,*6E
$GPGGA,100033.400,4329.73170,N,04230.25511,E,1,08,1.0,4241.1,M,6500.0,M,,*68
$GPGGA,100033.600,4329.73011,N,04230.26055,E,1,08,1.0,4239.4,M,6500.0,M,,*60
$GPGGA,100033.800,4329.72857,N,04230.26591,E,1,08,1.0,4244.1,M,6500.0,M,,*67
$GPGGA,100034.000,4329.72699,N,04230.27151,E,1,08,1.0,4244.7,M,6500.0,M,,*6B
$GPGGA,100034.200,4329.72548,N,04230.27701,E,1,08,1.0,4249.9,M,6500.0,M,,*66
$GPGGA,100034.400,4329.72408,N,04230.28234,E,1,08,1.0,4250.4,M,6500.0,M,,*6C
$GPGGA,100034.600,4329.72268,N,04230.28769,E,1,08,1.0,4250.4,M,6500.0,M,,*63
$GPGGA,100034.800,4329.72134,N,04230.29296,E,1,08,1.0,4257.1,M,6500.0,M,,*61
$GPGGA,100035.000,4329.71998,N,04230.29828,E,1,08,1.0,4257.6,M,6500.0,M,,*6D
$GPGGA,100035.200,4329.71867,N,04230.30362,E,1,08,1.0,4261.3,M,6500.0,M,,*63
$GPGGA,100035.400,4329.71745,N,04230.30875,E,1,08,1.0,4262.3,M,6500.0,M,,*64
$GPGGA,100035.600,4329.71631,N,04230.31367,E,1,08,1.0,4262.0,M,6500.0,M,,*6E
$GPGGA,100035.800,4329.71525,N,04230.31849,E,1,08,1.0,4265.0,M,6500.0,M,,*66
$GPGGA,100036.000,4329.71424,N,04230.32322,E,1,08,1.0,4270.1,M,6500.0,M,,*6D
$GPGGA,100036.200,4329.71329,N,04230.32791,E,1,08,1.0,4270.5,M,6500.0,M,,*6D
$GPGGA,100036.400,4329.71238,N,04230.33257,E,1,08,1.0,4273.5,M,6500.0,M,,*67
$GPGGA,100036.600,4329.71147,N,04230.33718,E,1,08,1.0,4275.5,M,6500.0,M,,*66
$GPGGA,100036.800,4329.71059,N,04230.34181,E,1,08,1.0,4279.3,M,6500.0,M,,*6D
$GPGGA,100037.000,4329.70968,N,04230.34653,E,1,08,1.0,4280.4,M,6500.0,M,,*67
$GPGGA,100037.200,4329.70870,N,04230.35149,E,1,08,1.0,4279.7,M,6500.0,M,,*65
$GPGGA,100037.400,4329.70769,N,04230.35658,E,1,08,1.0,4282.2,M,6500.0,M,,*62
$GPGGA,100037.600,4329.70664,N,04230.36176,E,1,08,1.0,4287.9,M,6500.0,M,,*6A
$GPGGA,100037.800,4329.70573,N,04230.36672,E,1,08,1.0,4284.4,M,6500.0,M,,*6C
$GPGGA,100038.000,4329.70488,N,04230.37151,E,1,08,1.0,4289.8,M,6500.0,M,,*68
$GPGGA,100038.200,4329.70413,N,04230.37607,E,1,08,1.0,4292.0,M,6500.0,M,,*6E
$GPGGA,100038.400,4329.70334,N,04230.38081,E,1,08,1.0,4288.7,M,6500.0,M,,*61
$GPGGA,100038.600,4329.70256,N,04230.38561,E,1,08,1.0,4292.6,M,6500.0,M,,*67
$GPGGA,100038.800,4329.70174,N,04230.39049,E,1,08,1.0,4295.0,M,6500.0,M,,*65
$GPGGA,100039.000,4329.70095,N,04230.39529,E,1,08,1.0,4296.0,M,6500.0,M,,*62
$GPGGA,100039.200,4329.70018,N,04230.40010,E,1,08,1.0,4299.0,M,6500.0,M,,*6B
$GPGGA,100039.400,4329.69944,N,04230.40493,E,1,08,1.0,4299.1,M,6500.0,M,,*6B
$GPGGA,100039.600,4329.69871,N,04230.40977,E,1,08,1.0,4302.8,M,6500.0,M,,*63
$GPGGA,100039.800,4329.69801,N,04230.41461,E,1,08,1.0,4308.0,M,6500.0,M,,*63
$GPGGA,100040.000,4329.69735,N,04230.41939,E,1,08,1.0,4307.3,M,6500.0,M,,*61
$GPGGA,100040.200,4329.69664,N,04230.42430,E,1,08,1.0,4310.9,M,6500.0,M,,*6D
$GPGGA,100040.400,4329.69592,N,04230.42924,E,1,08,1.0,4311.6,M,6500.0,M,,*67
$GPGGA,100040.600,4329.69533,N,04230.43398,E,1,08,1.0,4316.4,M,6500.0,M,,*67
$GPGGA,100040.800,4329.69476,N,04230.43860,E,1,08,1.0,4316.7,M,6500.0,M,,*66
$GPGGA,100041.000,4329.69427,N,04230.44305,E,1,08,1.0,4315.7,M,6500.0,M,,*67
$GPGGA,100041.200,4329.69378,N,04230.44761,E,1,08,1.0,4316.3,M,6500.0,M,,*69
$GPGGA,100041.400,4329.69329,N,04230.45220,E,1,08,1.0,4320.5,M,6500.0,M,,*69
$GPGGA,100041.600,4329.69278,N,04230.45679,E,1,08,1.0,4320.3,M,6500.0,M,,*60
$GPGGA,100041.800,4329.69225,N,04230.46156,E,1,08,1.0,4321.7,M,6500.0,M,,*6A
$GPGGA,100042.000,4329.69167,N,04230.46645,E,1,08,1.0,4327.7,M,6500.0,M,,*67
$GPGGA,100042.200,4329.69111,N,04230.47130,E,1,08,1.0,4330.2,M,6500.0,M,,*63
$GPGGA,100042.400,4329.69058,N,04230.47612,E,1,08,1.0,4326.1,M,6500.0,M,,*6A
$GPGGA,100042.600,4329.69009,N,04230.48094,E,1,08,1.0,4332.1,M,6500.0,M,,*6E
$GPGGA,100042.800,4329.68953,N,04230.48592,E,1,08,1.0,4334.4,M,6500.0,M,,*67
$GPGGA,100043.000,4329.68884,N,04230.49122,E,1,08,1.0,4333.6,M,6500.0,M,,*6E
$GPGGA,100043.200,4329.68816,N,04230.49664,E,1,08,1.0,4338.0,M,6500.0,M,,*6F
$GPGGA,100043.400,4329.68754,N,04230.50195,E,1,08,1.0,4341.4,M,6500.0,M,,*6B
$GPGGA,100043.600,4329.68689,N,04230.50728,E,1,08,1.0,4347.0,M,6500.0,M,,*6A
$GPGGA,100043.800,4329.68623,N,04230.51268,E,1,08,1.0,4349.7,M,6500.0,M,,*6D
$GPGGA,100044.000,4329.68562,N,04230.51804,E,1,08,1.0,4348.9,M,6500.0,M,,*6B
$GPGGA,100044.200,4329.68501,N,04230.52338,E,1,08,1.0,4353.5,M,6500.0,M,,*6D
$GPGGA,100044.400,4329.68446,N,04230.52853,E,1,08,1.0,4351.4,M,6500.0,M,,*6C
$GPGGA,100044.600,4329.68390,N,04230.53370,E,1,08,1.0,4350.1,M,6500.0,M,,*6D
$GPGGA,100044.800,4329.68345,N,04230.53870,E,1,08,1.0,4353.2,M,6500.0,M,,*60
$GPGGA,100045.000,4329.68303,N,04230.54367,E,1,08,1.0,4352.3,M,6500.0,M,,*61
$GPGGA,100045.200,4329.68262,N,04230.54865,E,1,08,1.0,4354.6,M,6500.0,M,,*6F
$GPGGA,100045.400,4329.68218,N,04230.55370,E,1,08,1.0,4356.4,M,6500.0,M,,*6A
$GPGGA,100045.600,4329.68171,N,04230.55888,E,1,08,1.0,4358.0,M,6500.0,M,,*62
$GPGGA,100045.800,4329.68129,N,04230.56399,E,1,08,1.0,4354.4,M,6500.0,M,,*61
$GPGGA,100046.000,4329.68090,N,04230.56902,E,1,08,1.0,4357.8,M,6500.0,M,,*6E
$GPGGA,100046.200,4329.68053,N,04230.57401,E,1,08,1.0,4361.9,M,6500.0,M,,*68
$GPGGA,100046.400,4329.68015,N,04230.57903,E,1,08,1.0,4359.3,M,6500.0,M,,*62
$GPGGA,100046.600,4329.67973,N,04230.58419,E,1,08,1.0,4356.7,M,6500.0,M,,*64
$GPGGA,100046.800,4329.67941,N,04230.58910,E,1,08,1.0,4358.8,M,6500.0,M,,*6E
$GPGGA,100047.000,4329.67907,N,04230.59410,E,1,08,1.0,4359.0,M,6500.0,M,,*60
$GPGGA,100047.200,4329.67864,N,04230.59941,E,1,08,1.0,4355.6,M,6500.0,M,,*65
$GPGGA,100047.400,4329.67821,N,04230.60480,E,1,08,1.0,4355.7,M,6500.0,M,,*69
$GPGGA,100047.600,4329.67774,N,04230.61020,E,1,08,1.0,4352.5,M,6500.0,M,,*6E
$GPGGA,100047.800,4329.67721,N,04230.61581,E,1,08,1.0,4357.8,M,6500.0,M,,*66
$GPGGA,100048.000,4329.67672,N,04230.62130,E,1,08,1.0,4357.6,M,6500.0,M,,*65
$GPGGA,100048.200,4329.67616,N,04230.62701,E,1,08,1.0,4359.8,M,6500.0,M,,*61
$GPGGA,100048.400,4329.67564,N,04230.63256,E,1,08,1.0,4360.2,M,6500.0,M,,*67
$GPGGA,100048.600,4329.67518,N,04230.63810,E,1,08,1.0,4359.6,M,6500.0,M,,*68
$GPGGA,100048.800,4329.67473,N,04230.64359,E,1,08,1.0,4360.4,M,6500.0,M,,*63
$GPGGA,100049.000,4329.67429,N,04230.64912,E,1,08,1.0,4358.7,M,6500.0,M,,*68
$GPGGA,100049.200,4329.67378,N,04230.65474,E,1,08,1.0,4364.6,M,6500.0,M,,*6B
$GPGGA,100049.400,4329.67333,N,04230.66029,E,1,08,1.0,4361.6,M,6500.0,M,,*68
$GPGGA,100049.600,4329.67294,N,04230.66575,E,1,08,1.0,4362.1,M,6500.0,M,,*6E
$GPGGA,100049.800,4329.67250,N,04230.67132,E,1,08,1.0,4365.2,M,6500.0,M,,*6A
$GPGGA,100050.000,4329.67202,N,04230.67699,E,1,08,1.0,4361.7,M,6500.0,M,,*6A
$GPGGA,100050.200,4329.67155,N,04230.68265,E,1,08,1.0,4365.5,M,6500.0,M,,*67
$GPGGA,100050.400,4329.67111,N,04230.68813,E,1,08,1.0,4358.4,M,6500.0,M,,*65
$GPGGA,100050.600,4329.67072,N,04230.69353,E,1,08,1.0,4359.7,M,6500.0,M,,*6F
$GPGGA,100050.800,4329.67035,N,04230.69889,E,1,08,1.0,4361.2,M,6500.0,M,,*60
$GPGGA,100051.000,4329.66998,N,04230.70434,E,1,08,1.0,4365.6,M,6500.0,M,,*64
$GPGGA,100051.200,4329.66962,N,04230.70976,E,1,08,1.0,4365.0,M,6500.0,M,,*6E
$GPGGA,100051.400,4329.66930,N,04230.71501,E,1,08,1.0,4364.4,M,6500.0,M,,*67
$GPGGA,100051.600,4329.66902,N,04230.72015,E,1,08,1.0,4366.7,M,6500.0,M,,*66
$GPGGA,100051.800,4329.66882,N,04230.72514,E,1,08,1.0,4368.1,M,6500.0,M,,*6D
$GPGGA,100052.000,4329.66861,N,04230.73015,E,1,08,1.0,4369.2,M,6500.0,M,,*6C
$GPGGA,100052.200,4329.66836,N,04230.73523,E,1,08,1.0,4377.7,M,6500.0,M,,*66
$GPGGA,100052.400,4329.66810,N,04230.74044,E,1,08,1.0,4376.4,M,6500.0,M,,*65
$GPGGA,100052.600,4329.66783,N,04230.74569,E,1,08,1.0,4374.5,M,6500.0,M,,*6B
$GPGGA,100052.800,4329.66760,N,04230.75076,E,1,08,1.0,4377.9,M,6500.0,M,,*6D
$GPGGA,100053.000,4329.66734,N,04230.75595,E,1,08,1.0,4379.1,M,6500.0,M,,*6B
$GPGGA,100053.200,4329.66698,N,04230.76143,E,1,08,1.0,4379.9,M,6500.0,M,,*6A
$GPGGA,100053.400,4329.66661,N,04230.76697,E,1,08,1.0,4378.3,M,6500.0,M,,*6F
$GPGGA,100053.600,4329.66625,N,04230.77247,E,1,08,1.0,4382.3,M,6500.0,M,,*60
$GPGGA,100053.800,4329.66586,N,04230.77804,E,1,08,1.0,4380.2,M,6500.0,M,,*6A
$GPGGA,100054.000,4329.66540,N,04230.78375,E,1,08,1.0,4381.0,M,6500.0,M,,*6E
$GPGGA,100054.200,4329.66502,N,04230.78931,E,1,08,1.0,4379.6,M,6500.0,M,,*61
$GPGGA,100054.400,4329.66462,N,04230.79489,E,1,08,1.0,4381.7,M,6500.0,M,,*69
$GPGGA,100054.600,4329.66417,N,04230.80065,E,1,08,1.0,4379.8,M,6500.0,M,,*61
$GPGGA,100054.800,4329.66374,N,04230.80636,E,1,08,1.0,4384.2,M,6500.0,M,,*65
$GPGGA,100055.000,4329.66333,N,04230.81199,E,1,08,1.0,4387.4,M,6500.0,M,,*69
$GPGGA,100055.200,4329.66288,N,04230.81775,E,1,08,1.0,4385.6,M,6500.0,M,,*6E
$GPGGA,100055.400,4329.66250,N,04230.82331,E,1,08,1.0,4387.5,M,6500.0,M,,*6B
$GPGGA,100055.600,4329.66218,N,04230.82877,E,1,08,1.0,4388.6,M,6500.0,M,,*60
$GPGGA,100055.800,4329.66178,N,04230.83430,E,1,08,1.0,4389.8,M,6500.0,M,,*6A
$GPGGA,100056.000,4329.66140,N,04230.83987,E,1,08,1.0,4385.6,M,6500.0,M,,*69
$GPGGA,100056.200,4329.66096,N,04230.84555,E,1,08,1.0,4385.3,M,6500.0,M,,*60
$GPGGA,100056.400,4329.66049,N,04230.85131,E,1,08,1.0,4389.1,M,6500.0,M,,*6D
$GPGGA,100056.600,4329.66001,N,04230.85711,E,1,08,1.0,4384.9,M,6500.0,M,,*62
$GPGGA,100056.800,4329.65950,N,04230.86302,E,1,08,1.0,4382.8,M,6500.0,M,,*60
$GPGGA,100057.000,4329.65901,N,04230.86893,E,1,08,1.0,4383.6,M,6500.0,M,,*61
$GPGGA,100057.200,4329.65858,N,04230.87461,E,1,08,1.0,4378.4,M,6500.0,M,,*68
$GPGGA,100057.400,4329.65818,N,04230.88013,E,1,08,1.0,4377.6,M,6500.0,M,,*69
$GPGGA,100057.600,4329.65773,N,04230.88584,E,1,08,1.0,4378.2,M,6500.0,M,,*69
$GPGGA,100057.800,4329.65726,N,04230.89159,E,1,08,1.0,4379.9,M,6500.0,M,,*68
$GPGGA,100058.000,4329.65680,N,04230.89736,E,1,08,1.0,4376.6,M,6500.0,M,,*6D
$GPGGA,100058.200,4329.65632,N,04230.90315,E,1,08,1.0,4372.2,M,6500.0,M,,*6B
$GPGGA,100058.400,4329.65580,N,04230.90904,E,1,08,1.0,4373.3,M,6500.0,M,,*6D
$GPGGA,100058.600,4329.65521,N,04230.91510,E,1,08,1.0,4367.3,M,6500.0,M,,*69
$GPGGA,100058.800,4329.65455,N,04230.92128,E,1,08,1.0,4365.6,M,6500.0,M,,*6E
$GPGGA,100059.000,4329.65394,N,04230.92742,E,1,08,1.0,4364.2,M,6500.0,M,,*62
$GPGGA,100059.200,4329.65337,N,04230.93343,E,1,08,1.0,4362.5,M,6500.0,M,,*6C
$GPGGA,100059.400,4329.65276,N,04230.93942,E,1,08,1.0,4355.8,M,6500.0,M,,*6C
$GPGGA,100059.600,4329.65217,N,04230.94545,E,1,08,1.0,4353.5,M,6500.0,M,,*6E
$GPGGA,100059.800,4329.65145,N,04230.95175,E,1,08,1.0,4353.2,M,6500.0,M,,*65
$GPGGA,100100.000,4329.65073,N,04230.95800,E,1,08,1.0,4349.7,M,6500.0,M,,*61
$GPGGA,100100.200,4329.65002,N,04230.96422,E,1,08,1.0,4346.3,M,6500.0,M,,*61
$GPGGA,100100.400,4329.64935,N,04230.97038,E,1,08,1.0,4343.9,M,6500.0,M,,*6A
$GPGGA,100100.600,4329.64858,N,04230.97669,E,1,08,1.0,4341.2,M,6500.0,M,,*69
$GPGGA,100100.800,4329.64780,N,04230.98302,E,1,08,1.0,4337.6,M,6500.0,M,,*6F
$GPGGA,100101.000,4329.64718,N,04230.98905,E,1,08,1.0,4340.7,M,6500.0,M,,*6B
$GPGGA,100101.200,4329.64665,N,04230.99468,E,1,08,1.0,4334.5,M,6500.0,M,,*64
$GPGGA,100101.400,4329.64615,N,04231.00029,E,1,08,1.0,4329.9,M,6500.0,M,,*65
$GPGGA,100101.600,4329.64559,N,04231.00598,E,1,08,1.0,4328.1,M,6500.0,M,,*6A
$GPGGA,100101.800,4329.64501,N,04231.01171,E,1,08,1.0,4329.8,M,6500.0,M,,*63
$GPGGA,100102.000,4329.64450,N,04231.01734,E,1,08,1.0,4328.1,M,6500.0,M,,*62
$GPGGA,100102.200,4329.64399,N,04231.02295,E,1,08,1.0,4329.0,M,6500.0,M,,*6F
$GPGGA,100102.400,4329.64342,N,04231.02852,E,1,08,1.0,4325.1,M,6500.0,M,,*63
$GPGGA,100102.600,4329.64292,N,04231.03397,E,1,08,1.0,4324.1,M,6500.0,M,,*6F
$GPGGA,100102.800,4329.64238,N,04231.03955,E,1,08,1.0,4321.6,M,6500.0,M,,*67
$GPGGA,100103.000,4329.64187,N,04231.04502,E,1,08,1.0,4317.1,M,6500.0,M,,*62
$GPGGA,100103.200,4329.64130,N,04231.05056,E,1,08,1.0,4316.8,M,6500.0,M,,*61
$GPGGA,100103.400,4329.64069,N,04231.05625,E,1,08,1.0,4314.8,M,6500.0,M,,*6A
$GPGGA,100103.600,4329.64006,N,04231.06184,E,1,08,1.0,4314.5,M,6500.0,M,,*63
$GPGGA,100103.800,4329.63952,N,04231.06727,E,1,08,1.0,4311.8,M,6500.0,M,,*65
$GPGGA,100104.000,4329.63899,N,04231.07266,E,1,08,1.0,4305.0,M,6500.0,M,,*60
$GPGGA,100104.200,4329.63837,N,04231.07820,E,1,08,1.0,4305.5,M,6500.0,M,,*6B
$GPGGA,100104.400,4329.63782,N,04231.08360,E,1,08,1.0,4300.5,M,6500.0,M,,*69
$GPGGA,100104.600,4329.63718,N,04231.08910,E,1,08,1.0,4303.1,M,6500.0,M,,*62
$GPGGA,100104.800,4329.63654,N,04231.09468,E,1,08,1.0,4301.1,M,6500.0,M,,*64
$GPGGA,100105.000,4329.63597,N,04231.10004,E,1,08,1.0,4299.7,M,6500.0,M,,*61
$GPGGA,100105.200,4329.63533,N,04231.10544,E,1,08,1.0,4295.3,M,6500.0,M,,*64
$GPGGA,100105.400,4329.63462,N,04231.11103,E,1,08,1.0,4297.6,M,6500.0,M,,*66
$GPGGA,100105.600,4329.63391,N,04231.11658,E,1,08,1.0,4293.4,M,6500.0,M,,*60
$GPGGA,100105.800,4329.63315,N,04231.12235,E,1,08,1.0,4287.0,M,6500.0,M,,*6F
$GPGGA,100106.000,4329.63233,N,04231.12814,E,1,08,1.0,4293.2,M,6500.0,M,,*6F
$GPGGA,100106.200,4329.63156,N,04231.13383,E,1,08,1.0,4289.9,M,6500.0,M,,*69
$GPGGA,100106.400,4329.63080,N,04231.13947,E,1,08,1.0,4289.6,M,6500.0,M,,*68
$GPGGA,100106.600,4329.63000,N,04231.14516,E,1,08,1.0,4287.4,M,6500.0,M,,*61
$GPGGA,100106.800,4329.62926,N,04231.15068,E,1,08,1.0,4284.9,M,6500.0,M,,*60
$GPGGA,100107.000,4329.62839,N,04231.15643,E,1,08,1.0,4281.2,M,6500.0,M,,*67
$GPGGA,100107.200,4329.62756,N,04231.16206,E,1,08,1.0,4274.6,M,6500.0,M,,*6B
$GPGGA,100107.400,4329.62679,N,04231.16765,E,1,08,1.0,4274.3,M,6500.0,M,,*64
$GPGGA,100107.600,4329.62603,N,04231.17311,E,1,08,1.0,4269.9,M,6500.0,M,,*6B
$GPGGA,100107.800,4329.62514,N,04231.17886,E,1,08,1.0,4266.5,M,6500.0,M,,*66
$GPGGA,100108.000,4329.62419,N,04231.18470,E,1,08,1.0,4271.5,M,6500.0,M,,*61
$GPGGA,100108.200,4329.62326,N,04231.19044,E,1,08,1.0,4264.3,M,6500.0,M,,*68
$GPGGA,100108.400,4329.62227,N,04231.19631,E,1,08,1.0,4267.0,M,6500.0,M,,*6A
$GPGGA,100108.600,4329.62128,N,04231.20219,E,1,08,1.0,4263.3,M,6500.0,M,,*67
$GPGGA,100108.800,4329.62023,N,04231.20813,E,1,08,1.0,4263.3,M,6500.0,M,,*63
$GPGGA,100109.000,4329.61912,N,04231.21417,E,1,08,1.0,4264.6,M,6500.0,M,,*69
$GPGGA,100109.200,4329.61801,N,04231.22025,E,1,08,1.0,4259.5,M,6500.0,M,,*63
$GPGGA,100109.400,4329.61688,N,04231.22630,E,1,08,1.0,4260.8,M,6500.0,M,,*6F
$GPGGA,100109.600,4329.61575,N,04231.23226,E,1,08,1.0,4262.2,M,6500.0,M,,*66
$GPGGA,100109.800,4329.61465,N,04231.23820,E,1,08,1.0,4261.6,M,6500.0,M,,*63
$GPGGA,100110.000,4329.61361,N,04231.24393,E,1,08,1.0,4260.8,M,6500.0,M,,*6B
$GPGGA,100110.200,4329.61265,N,04231.24936,E,1,08,1.0,4261.6,M,6500.0,M,,*66
$GPGGA,100110.400,4329.61165,N,04231.25489,E,1,08,1.0,4259.0,M,6500.0,M,,*66
$GPGGA,100110.600,4329.61061,N,04231.26039,E,1,08,1.0,4258.6,M,6500.0,M,,*6A
$GPGGA,100110.800,4329.60958,N,04231.26584,E,1,08,1.0,4257.0,M,6500.0,M,,*6C
$GPGGA,100111.000,4329.60850,N,04231.27144,E,1,08,1.0,4255.4,M,6500.0,M,,*63
$GPGGA,100111.200,4329.60730,N,04231.27733,E,1,08,1.0,4257.4,M,6500.0,M,,*6C
$GPGGA,100111.400,4329.60604,N,04231.28316,E,1,08,1.0,4250.4,M,6500.0,M,,*67
$GPGGA,100111.600,4329.60476,N,04231.28912,E,1,08,1.0,4248.4,M,6500.0,M,,*65
$GPGGA,100111.800,4329.60345,N,04231.29506,E,1,08,1.0,4241.3,M,6500.0,M,,*6A
$GPGGA,100112.000,4329.60204,N,04231.30114,E,1,08,1.0,4237.0,M,6500.0,M,,*68
$GPGGA,100112.200,4329.60055,N,04231.30739,E,1,08,1.0,4235.3,M,6500.0,M,,*64
$GPGGA,100112.400,4329.59903,N,04231.31371,E,1,08,1.0,4232.3,M,6500.0,M,,*6C
$GPGGA,100112.600,4329.59740,N,04231.32023,E,1,08,1.0,4225.9,M,6500.0,M,,*6C
$GPGGA,100112.800,4329.59580,N,04231.32662,E,1,08,1.0,4223.7,M,6500.0,M,,*67
$GPGGA,100113.000,4329.59424,N,04231.33297,E,1,08,1.0,4219.0,M,6500.0,M,,*60
$GPGGA,100113.200,4329.59265,N,04231.33929,E,1,08,1.0,4216.7,M,6500.0,M,,*67
$GPGGA,100113.400,4329.59103,N,04231.34568,E,1,08,1.0,4213.8,M,6500.0,M,,*66
$GPGGA,100113.600,4329.58942,N,04231.35192,E,1,08,1.0,4205.0,M,6500.0,M,,*67
$GPGGA,100113.800,4329.58773,N,04231.35823,E,1,08,1.0,4203.2,M,6500.0,M,,*62
$GPGGA,100114.000,4329.58605,N,04231.36453,E,1,08,1.0,4199.6,M,6500.0,M,,*61
$GPGGA,100114.200,4329.58437,N,04231.37079,E,1,08,1.0,4196.8,M,6500.0,M,,*6C
$GPGGA,100114.400,4329.58267,N,04231.37702,E,1,08,1.0,4196.5,M,6500.0,M,,*6F
$GPGGA,100114.600,4329.58092,N,04231.38335,E,1,08,1.0,4187.9,M,6500.0,M,,*66
$GPGGA,100114.800,4329.57912,N,04231.38981,E,1,08,1.0,4187.6,M,6500.0,M,,*6C
$GPGGA,100115.000,4329.57733,N,04231.39616,E,1,08,1.0,4183.6,M,6500.0,M,,*6C
$GPGGA,100115.200,4329.57545,N,04231.40261,E,1,08,1.0,4177.0,M,6500.0,M,,*6A
$GPGGA,100115.400,4329.57357,N,04231.40898,E,1,08,1.0,4177.2,M,6500.0,M,,*67
$GPGGA,100115.600,4329.57172,N,04231.41527,E,1,08,1.0,4168.6,M,6500.0,M,,*62
$GPGGA,100115.800,4329.56981,N,04231.42159,E,1,08,1.0,4167.1,M,6500.0,M,,*6F
$GPGGA,100116.000,4329.56796,N,04231.42775,E,1,08,1.0,4161.2,M,6500.0,M,,*61
$GPGGA,100116.200,4329.56619,N,04231.43365,E,1,08,1.0,4158.8,M,6500.0,M,,*61
$GPGGA,100116.400,4329.56446,N,04231.43942,E,1,08,1.0,4158.6,M,6500.0,M,,*6E
$GPGGA,100116.600,4329.56270,N,04231.44526,E,1,08,1.0,4151.2,M,6500.0,M,,*6B
$GPGGA,100116.800,4329.56091,N,04231.45112,E,1,08,1.0,4153.2,M,6500.0,M,,*68
$GPGGA,100117.000,4329.55918,N,04231.45677,E,1,08,1.0,4149.6,M,6500.0,M,,*61
$GPGGA,100117.200,4329.55750,N,04231.46221,E,1,08,1.0,4150.8,M,6500.0,M,,*63
$GPGGA,100117.400,4329.55576,N,04231.46771,E,1,08,1.0,4149.3,M,6500.0,M,,*60
$GPGGA,100117.600,4329.55402,N,04231.47315,E,1,08,1.0,4149.9,M,6500.0,M,,*6D
$GPGGA,100117.800,4329.55227,N,04231.47865,E,1,08,1.0,4143.4,M,6500.0,M,,*69
$GPGGA,100118.000,4329.55045,N,04231.48422,E,1,08,1.0,4140.2,M,6500.0,M,,*6D
$GPGGA,100118.200,,,,,0,,,4139.5,M,6500.0,M,,*7A
$GPGGA,100118.400,,,,,0,,,4134.0,M,6500.0,M,,*74
$GPGGA,100118.600,,,,,0,,,4133.0,M,6500.0,M,,*71
$GPGGA,100118.800,,,,,0,,,4130.1,M,6500.0,M,,*7D
$GPGGA,100119.000,,,,,0,,,4126.1,M,6500.0,M,,*73
$GPGGA,100119.200,,,,,0,,,4125.0,M,6500.0,M,,*73
$GPGGA,100119.400,,,,,0,,,4127.3,M,6500.0,M,,*74
$GPGGA,100119.600,,,,,0,,,4124.4,M,6500.0,M,,*72
$GPGGA,100119.800,,,,,0,,,4116.4,M,6500.0,M,,*7D
$GPGGA,100120.000,,,,,0,,,4117.8,M,6500.0,M,,*72
$GPGGA,100120.200,,,,,0,,,4113.8,M,6500.0,M,,*74
$GPGGA,100120.400,,,,,0,,,4115.3,M,6500.0,M,,*7F
$GPGGA,100120.600,,,,,0,,,4114.2,M,6500.0,M,,*7D
$GPGGA,100120.800,,,,,0,,,4109.7,M,6500.0,M,,*7A
$GPGGA,100121.000,,,,,0,,,4112.1,M,6500.0,M,,*7F
$GPGGA,100121.200,,,,,0,,,4110.8,M,6500.0,M,,*76
$GPGGA,100121.400,,,,,0,,,4110.4,M,6500.0,M,,*7C
$GPGGA,100121.600,,,,,0,,,4108.8,M,6500.0,M,,*7B
$GPGGA,100121.800,,,,,0,,,4109.2,M,6500.0,M,,*7E
$GPGGA,100122.000,,,,,0,,,4106.1,M,6500.0,M,,*79
$GPGGA,100122.200,,,,,0,,,4104.4,M,6500.0,M,,*7C
$GPGGA,100122.400,,,,,0,,,4104.2,M,6500.0,M,,*7C
$GPGGA,100122.600,,,,,0,,,4102.0,M,6500.0,M,,*7A
$GPGGA,100122.800,,,,,0,,,4103.1,M,6500.0,M,,*74
$GPGGA,100123.000,,,,,0,,,4095.1,M,6500.0,M,,*73
$GPGGA,100123.200,,,,,0,,,4098.0,M,6500.0,M,,*7D
$GPGGA,100123.400,,,,,0,,,4099.8,M,6500.0,M,,*72
$GPGGA,100123.600,,,,,0,,,4097.0,M,6500.0,M,,*76
$GPGGA,100123.800,,,,,0,,,4097.1,M,6500.0,M,,*79
$GPGGA,100124.000,,,,,0,,,4104.1,M,6500.0,M,,*7D
$GPGGA,100124.200,,,,,0,,,4100.3,M,6500.0,M,,*79
$GPGGA,100124.400,,,,,0,,,4097.9,M,6500.0,M,,*7A
$GPGGA,100124.600,,,,,0,,,4101.3,M,6500.0,M,,*7C
$GPGGA,100124.800,,,,,0,,,4096.8,M,6500.0,M,,*76
$GPGGA,100125.000,,,,,0,,,4098.6,M,6500.0,M,,*7F
$GPGGA,100125.200,,,,,0,,,4096.1,M,6500.0,M,,*74
$GPGGA,100125.400,,,,,0,,,4098.8,M,6500.0,M,,*75
$GPGGA,100125.600,,,,,0,,,4100.1,M,6500.0,M,,*7E
$GPGGA,100125.800,,,,,0,,,4098.0,M,6500.0,M,,*71
$GPGGA,100126.000,,,,,0,,,4102.0,M,6500.0,M,,*78
$GPGGA,100126.200,,,,,0,,,4098.8,M,6500.0,M,,*70
$GPGGA,100126.400,,,,,0,,,4102.6,M,6500.0,M,,*7A
$GPGGA,100126.600,,,,,0,,,4099.3,M,6500.0,M,,*7E
$GPGGA,100126.800,,,,,0,,,4105.9,M,6500.0,M,,*7E
$GPGGA,100127.000,,,,,0,,,4107.5,M,6500.0,M,,*79
$GPGGA,100127.200,,,,,0,,,4106.7,M,6500.0,M,,*78
$GPGGA,100127.400,,,,,0,,,4103.9,M,6500.0,M,,*75
$GPGGA,100127.600,,,,,0,,,4103.4,M,6500.0,M,,*7A
$GPGGA,100127.800,,,,,0,,,4105.6,M,6500.0,M,,*70
$GPGGA,100128.000,,,,,0,,,4106.5,M,6500.0,M,,*77
$GPGGA,100128.200,,,,,0,,,4107.6,M,6500.0,M,,*77
$GPGGA,100128.400,,,,,0,,,4107.5,M,6500.0,M,,*72
$GPGGA,100128.600,,,,,0,,,4107.6,M,6500.0,M,,*73
$GPGGA,100128.800,,,,,0,,,4111.0,M,6500.0,M,,*7C
$GPGGA,100129.000,,,,,0,,,4114.1,M,6500.0,M,,*71
$GPGGA,100129.200,,,,,0,,,4117.2,M,6500.0,M,,*73
$GPGGA,100129.400,,,,,0,,,4114.4,M,6500.0,M,,*70
$GPGGA,100129.600,,,,,0,,,4119.2,M,6500.0,M,,*79
$GPGGA,100129.800,,,,,0,,,4118.8,M,6500.0,M,,*7C
$GPGGA,100130.000,,,,,0,,,4123.4,M,6500.0,M,,*78
$GPGGA,100130.200,,,,,0,,,4126.4,M,6500.0,M,,*7F
$GPGGA,100130.400,,,,,0,,,4127.1,M,6500.0,M,,*7D
$GPGGA,100130.600,,,,,0,,,4127.7,M,6500.0,M,,*79
$GPGGA,100130.800,,,,,0,,,4126.3,M,6500.0,M,,*72
$GPGGA,100131.000,,,,,0,,,4129.5,M,6500.0,M,,*72
$GPGGA,100131.200,,,,,0,,,4132.7,M,6500.0,M,,*78
$GPGGA,100131.400,,,,,0,,,4132.3,M,6500.0,M,,*7A
$GPGGA,100131.600,,,,,0,,,4131.4,M,6500.0,M,,*7C
$GPGGA,100131.800,,,,,0,,,4133.3,M,6500.0,M,,*77
$GPGGA,100132.000,,,,,0,,,4132.5,M,6500.0,M,,*7B
$GPGGA,100132.200,,,,,0,,,4131.4,M,6500.0,M,,*7B
$GPGGA,100132.400,,,,,0,,,4134.7,M,6500.0,M,,*7B
$GPGGA,100132.600,,,,,0,,,4137.0,M,6500.0,M,,*7D
$GPGGA,100132.800,,,,,0,,,4138.1,M,6500.0,M,,*7D
$GPGGA,100133.000,,,,,0,,,4137.4,M,6500.0,M,,*7E
$GPGGA,100133.200,,,,,0,,,4138.2,M,6500.0,M,,*75
$GPGGA,100133.400,,,,,0,,,4135.0,M,6500.0,M,,*7C
$GPGGA,100133.600,,,,,0,,,4136.0,M,6500.0,M,,*7D
$GPGGA,100133.800,,,,,0,,,4138.5,M,6500.0,M,,*78
$GPGGA,100134.000,,,,,0,,,4139.3,M,6500.0,M,,*70
$GPGGA,100134.200,,,,,0,,,4141.9,M,6500.0,M,,*77
$GPGGA,100134.400,,,,,0,,,4140.5,M,6500.0,M,,*7C
$GPGGA,100134.600,,,,,0,,,4139.8,M,6500.0,M,,*7D
$GPGGA,100134.800,,,,,0,,,4143.2,M,6500.0,M,,*74
$GPGGA,100135.000,,,,,0,,,4141.5,M,6500.0,M,,*78
$GPGGA,100135.200,,,,,0,,,4142.5,M,6500.0,M,,*79
$GPGGA,100135.400,,,,,0,,,4145.1,M,6500.0,M,,*7C
$GPGGA,100135.600,,,,,0,,,4143.9,M,6500.0,M,,*70
$GPGGA,100135.800,,,,,0,,,4144.6,M,6500.0,M,,*76
$GPGGA,100136.000,,,,,0,,,4143.7,M,6500.0,M,,*7B
$GPGGA,100136.200,,,,,0,,,4144.3,M,6500.0,M,,*7A
$GPGGA,100136.400,,,,,0,,,4147.4,M,6500.0,M,,*78
$GPGGA,100136.600,,,,,0,,,4145.7,M,6500.0,M,,*7B
$GPGGA,100136.800,,,,,0,,,4146.6,M,6500.0,M,,*77
$GPGGA,100137.000,,,,,0,,,4148.0,M,6500.0,M,,*76
$GPGGA,100137.200,,,,,0,,,4149.1,M,6500.0,M,,*74
$GPGGA,100137.400,,,,,0,,,4151.1,M,6500.0,M,,*7B
$GPGGA,100137.600,,,,,0,,,4152.4,M,6500.0,M,,*7F
$GPGGA,100137.800,,,,,0,,,4153.4,M,6500.0,M,,*70
$GPGGA,100138.000,,,,,0,,,4150.6,M,6500.0,M,,*76
$GPGGA,100138.200,,,,,0,,,4156.9,M,6500.0,M,,*7D
$GPGGA,100138.400,,,,,0,,,4154.9,M,6500.0,M,,*79
$GPGGA,100138.600,,,,,0,,,4155.8,M,6500.0,M,,*7B
$GPGGA,100138.800,,,,,0,,,4155.2,M,6500.0,M,,*7F
$GPGGA,100139.000,,,,,0,,,4152.8,M,6500.0,M,,*7B
$GPGGA,100139.200,,,,,0,,,4158.2,M,6500.0,M,,*79
$GPGGA,100139.400,,,,,0,,,4154.5,M,6500.0,M,,*74
$GPGGA,100139.600,,,,,0,,,4158.4,M,6500.0,M,,*7B
$GPGGA,100139.800,,,,,0,,,4158.6,M,6500.0,M,,*77
$GPGGA,100140.000,,,,,0,,,4156.2,M,6500.0,M,,*7B
$GPGGA,100140.200,,,,,0,,,4161.5,M,6500.0,M,,*7A
$GPGGA,100140.400,,,,,0,,,4159.4,M,6500.0,M,,*76
$GPGGA,100140.600,,,,,0,,,4159.9,M,6500.0,M,,*79
$GPGGA,100140.800,,,,,0,,,4163.0,M,6500.0,M,,*77
$GPGGA,100141.000,,,,,0,,,4163.7,M,6500.0,M,,*79
$GPGGA,100141.200,,,,,0,,,4163.7,M,6500.0,M,,*7B
$GPGGA,100141.400,,,,,0,,,4163.9,M,6500.0,M,,*73
$GPGGA,100141.600,,,,,0,,,4161.5,M,6500.0,M,,*7F
$GPGGA,100141.800,,,,,0,,,4164.0,M,6500.0,M,,*71
$GPGGA,100142.000,,,,,0,,,4167.5,M,6500.0,M,,*7C
$GPGGA,100142.200,,,,,0,,,4167.3,M,6500.0,M,,*78
$GPGGA,100142.400,,,,,0,,,4167.3,M,6500.0,M,,*7E
$GPGGA,100142.600,,,,,0,,,4165.3,M,6500.0,M,,*7E
$GPGGA,100142.800,,,,,0,,,4167.8,M,6500.0,M,,*79
$GPGGA,100143.000,,,,,0,,,4164.2,M,6500.0,M,,*79
$GPGGA,100143.200,,,,,0,,,4167.6,M,6500.0,M,,*7C
$GPGGA,100143.400,,,,,0,,,4169.3,M,6500.0,M,,*71
$GPGGA,100143.600,,,,,0,,,4170.5,M,6500.0,M,,*7D
$GPGGA,100143.800,,,,,0,,,4172.5,M,6500.0,M,,*71
$GPGGA,100144.000,,,,,0,,,4171.3,M,6500.0,M,,*7B
$GPGGA,100144.200,,,,,0,,,4173.1,M,6500.0,M,,*79
$GPGGA,100144.400,,,,,0,,,4178.1,M,6500.0,M,,*74
$GPGGA,100144.600,,,,,0,,,4184.6,M,6500.0,M,,*72
$GPGGA,100144.800,,,,,0,,,4189.1,M,6500.0,M,,*76
$GPGGA,100145.000,,,,,0,,,4194.8,M,6500.0,M,,*7A
$GPGGA,100145.200,,,,,0,,,4199.4,M,6500.0,M,,*79
$GPGGA,100145.400,,,,,0,,,4206.6,M,6500.0,M,,*78
$GPGGA,100145.600,,,,,0,,,4206.9,M,6500.0,M,,*75
$GPGGA,100145.800,,,,,0,,,4213.8,M,6500.0,M,,*7E
$GPGGA,100146.000,,,,,0,,,4218.8,M,6500.0,M,,*7E
$GPGGA,100146.200,,,,,0,,,4227.4,M,6500.0,M,,*7C
$GPGGA,100146.400,,,,,0,,,4229.5,M,6500.0,M,,*75
$GPGGA,100146.600,,,,,0,,,4232.6,M,6500.0,M,,*7E
$GPGGA,100146.800,,,,,0,,,4236.4,M,6500.0,M,,*76
$GPGGA,100147.000,,,,,0,,,4236.2,M,6500.0,M,,*79
$GPGGA,100147.200,,,,,0,,,4238.9,M,6500.0,M,,*7E
$GPGGA,100147.400,,,,,0,,,4241.4,M,6500.0,M,,*7B
$GPGGA,100147.600,,,,,0,,,4242.0,M,6500.0,M,,*7E
$GPGGA,100147.800,,,,,0,,,4244.7,M,6500.0,M,,*71
$GPGGA,100148.000,,,,,0,,,4238.6,M,6500.0,M,,*7C
$GPGGA,100148.200,,,,,0,,,4242.3,M,6500.0,M,,*76
$GPGGA,100148.400,,,,,0,,,4242.7,M,6500.0,M,,*74
$GPGGA,100148.600,,,,,0,,,4241.4,M,6500.0,M,,*76
$GPGGA,100148.800,,,,,0,,,4242.0,M,6500.0,M,,*7F
$GPGGA,100149.000,,,,,0,,,4238.3,M,6500.0,M,,*78
$GPGGA,100149.200,,,,,0,,,4240.9,M,6500.0,M,,*7F
$GPGGA,100149.400,,,,,0,,,4238.6,M,6500.0,M,,*79
$GPGGA,100149.600,,,,,0,,,4235.2,M,6500.0,M,,*72
$GPGGA,100149.800,,,,,0,,,4233.9,M,6500.0,M,,*71
$GPGGA,100150.000,,,,,0,,,4235.1,M,6500.0,M,,*7F
$GPGGA,100150.200,,,,,0,,,4232.1,M,6500.0,M,,*7A
$GPGGA,100150.400,,,,,0,,,4237.1,M,6500.0,M,,*79
$GPGGA,100150.600,,,,,0,,,4234.0,M,6500.0,M,,*79
$GPGGA,100150.800,,,,,0,,,4233.2,M,6500.0,M,,*72
$GPGGA,100151.000,,,,,0,,,4234.2,M,6500.0,M,,*7C
$GPGGA,100151.200,,,,,0,,,4232.2,M,6500.0,M,,*78
$GPGGA,100151.400,,,,,0,,,4238.3,M,6500.0,M,,*75
$GPGGA,100151.600,,,,,0,,,4231.0,M,6500.0,M,,*7D
$GPGGA,100151.800,,,,,0,,,4231.4,M,6500.0,M,,*77
$GPGGA,100152.000,,,,,0,,,4232.6,M,6500.0,M,,*7D
$GPGGA,100152.200,,,,,0,,,4229.2,M,6500.0,M,,*71
$GPGGA,100152.400,,,,,0,,,4232.4,M,6500.0,M,,*7B
$GPGGA,100152.600,,,,,0,,,4228.8,M,6500.0,M,,*7E
$GPGGA,100152.800,,,,,0,,,4230.7,M,6500.0,M,,*76
$GPGGA,100153.000,,,,,0,,,4230.4,M,6500.0,M,,*7C
$GPGGA,100153.200,,,,,0,,,4230.2,M,6500.0,M,,*78
$GPGGA,100153.400,,,,,0,,,4224.4,M,6500.0,M,,*7D
$GPGGA,100153.600,,,,,0,,,4228.1,M,6500.0,M,,*76
$GPGGA,100153.800,,,,,0,,,4227.1,M,6500.0,M,,*77
$GPGGA,100154.000,,,,,0,,,4224.6,M,6500.0,M,,*7C
$GPGGA,100154.200,,,,,0,,,4226.5,M,6500.0,M,,*7F
$GPGGA,100154.400,,,,,0,,,4224.7,M,6500.0,M,,*79
$GPGGA,100154.600,,,,,0,,,4222.1,M,6500.0,M,,*7B
$GPGGA,100154.800,,,,,0,,,4221.7,M,6500.0,M,,*70
$GPGGA,100155.000,,,,,0,,,4221.8,M,6500.0,M,,*76
$GPGGA,100155.200,,,,,0,,,4218.9,M,6500.0,M,,*7F
$GPGGA,100155.400,,,,,0,,,4218.7,M,6500.0,M,,*77
$GPGGA,100155.600,,,,,0,,,4227.2,M,6500.0,M,,*7C
$GPGGA,100155.800,,,,,0,,,4217.9,M,6500.0,M,,*7A
$GPGGA,100156.000,,,,,0,,,4217.9,M,6500.0,M,,*71
$GPGGA,100156.200,,,,,0,,,4221.3,M,6500.0,M,,*7C
$GPGGA,100156.400,,,,,0,,,4221.4,M,6500.0,M,,*7D
$GPGGA,100156.600,,,,,0,,,4217.2,M,6500.0,M,,*7C
$GPGGA,100156.800,,,,,0,,,4219.1,M,6500.0,M,,*7F
$GPGGA,100157.000,,,,,0,,,4214.9,M,6500.0,M,,*73
$GPGGA,100157.200,,,,,0,,,4214.4,M,6500.0,M,,*7C
$GPGGA,100157.400,,,,,0,,,4215.0,M,6500.0,M,,*7F
$GPGGA,100157.600,,,,,0,,,4214.7,M,6500.0,M,,*7B
$GPGGA,100157.800,,,,,0,,,4211.3,M,6500.0,M,,*74
$GPGGA,100158.000,,,,,0,,,4214.0,M,6500.0,M,,*75
$GPGGA,100158.200,,,,,0,,,4213.6,M,6500.0,M,,*76
$GPGGA,100158.400,,,,,0,,,4213.7,M,6500.0,M,,*71
$GPGGA,100158.600,,,,,0,,,4217.4,M,6500.0,M,,*74
$GPGGA,100158.800,,,,,0,,,4219.6,M,6500.0,M,,*76
$GPGGA,100159.000,,,,,0,,,4225.9,M,6500.0,M,,*7F
$GPGGA,100159.200,,,,,0,,,4235.5,M,6500.0,M,,*70
$GPGGA,100159.400,,,,,0,,,4235.1,M,6500.0,M,,*72
$GPGGA,100159.600,,,,,0,,,4242.9,M,6500.0,M,,*78
$GPGGA,100159.800,,,,,0,,,4250.8,M,6500.0,M,,*74
$GPGGA,100200.000,,,,,0,,,4252.8,M,6500.0,M,,*71
$GPGGA,100200.200,,,,,0,,,4257.8,M,6500.0,M,,*76
$GPGGA,100200.400,,,,,0,,,4261.2,M,6500.0,M,,*7F
$GPGGA,100200.600,,,,,0,,,4263.7,M,6500.0,M,,*7A
$GPGGA,100200.800,,,,,0,,,4269.5,M,6500.0,M,,*7C
$GPGGA,100201.000,,,,,0,,,4275.3,M,6500.0,M,,*7E
$GPGGA,100201.200,,,,,0,,,4284.9,M,6500.0,M,,*78
$GPGGA,100201.400,,,,,0,,,4287.3,M,6500.0,M,,*77
$GPGGA,100201.600,,,,,0,,,4295.4,M,6500.0,M,,*71
$GPGGA,100201.800,,,,,0,,,4300.6,M,6500.0,M,,*70
$GPGGA,100202.000,,,,,0,,,4304.0,M,6500.0,M,,*79
$GPGGA,100202.200,,,,,0,,,4313.2,M,6500.0,M,,*7F
$GPGGA,100202.400,,,,,0,,,4318.6,M,6500.0,M,,*76
$GPGGA,100202.600,,,,,0,,,4324.7,M,6500.0,M,,*7A
$GPGGA,100202.800,,,,,0,,,4332.5,M,6500.0,M,,*71
$GPGGA,100203.000,,,,,0,,,4333.4,M,6500.0,M,,*78
$GPGGA,100203.200,,,,,0,,,4342.1,M,6500.0,M,,*79
$GPGGA,100203.400,,,,,0,,,4351.5,M,6500.0,M,,*79
$GPGGA,100203.600,,,,,0,,,4353.4,M,6500.0,M,,*78
$GPGGA,100203.800,,,,,0,,,4363.1,M,6500.0,M,,*70
$GPGGA,100204.000,,,,,0,,,4366.6,M,6500.0,M,,*7D
$GPGGA,100204.200,,,,,0,,,4366.7,M,6500.0,M,,*7E
$GPGGA,100204.400,,,,,0,,,4372.4,M,6500.0,M,,*7E
$GPGGA,100204.600,,,,,0,,,4378.4,M,6500.0,M,,*76
$GPGGA,100204.800,,,,,0,,,4380.6,M,6500.0,M,,*7D
$GPGGA,100205.000,,,,,0,,,4385.0,M,6500.0,M,,*77
$GPGGA,100205.200,,,,,0,,,4386.3,M,6500.0,M,,*75
$GPGGA,100205.400,,,,,0,,,4393.3,M,6500.0,M,,*77
$GPGGA,100205.600,,,,,0,,,4395.3,M,6500.0,M,,*73
$GPGGA,100205.800,,,,,0,,,4394.8,M,6500.0,M,,*77
$GPGGA,100206.000,,,,,0,,,4398.7,M,6500.0,M,,*7F
$GPGGA,100206.200,,,,,0,,,4401.2,M,6500.0,M,,*7F
$GPGGA,100206.400,,,,,0,,,4400.9,M,6500.0,M,,*73
$GPGGA,100206.600,,,,,0,,,4402.2,M,6500.0,M,,*78
$GPGGA,100206.800,,,,,0,,,4405.7,M,6500.0,M,,*74
$GPGGA,100207.000,,,,,0,,,4402.5,M,6500.0,M,,*78
$GPGGA,100207.200,,,,,0,,,4404.4,M,6500.0,M,,*7D
$GPGGA,100207.400,,,,,0,,,4403.9,M,6500.0,M,,*71
$GPGGA,100207.600,,,,,0,,,4399.8,M,6500.0,M,,*76
$GPGGA,100207.800,,,,,0,,,4390.6,M,6500.0,M,,*7F
$GPGGA,100208.000,,,,,0,,,4388.7,M,6500.0,M,,*70
$GPGGA,100208.200,,,,,0,,,4384.5,M,6500.0,M,,*7C
$GPGGA,100208.400,,,,,0,,,4383.6,M,6500.0,M,,*7E
$GPGGA,100208.600,,,,,0,,,4378.3,M,6500.0,M,,*7D
$GPGGA,100208.800,,,,,0,,,4377.7,M,6500.0,M,,*78
$GPGGA,100209.000,,,,,0,,,4377.9,M,6500.0,M,,*7F
$GPGGA,100209.200,,,,,0,,,4379.0,M,6500.0,M,,*7A
$GPGGA,100209.400,,,,,0,,,4380.9,M,6500.0,M,,*73
$GPGGA,100209.600,,,,,0,,,4379.4,M,6500.0,M,,*7A
$GPGGA,100209.800,,,,,0,,,4381.3,M,6500.0,M,,*74
$GPGGA,100210.000,,,,,0,,,4383.1,M,6500.0,M,,*74
$GPGGA,100210.200,,,,,0,,,4392.8,M,6500.0,M,,*7F
$GPGGA,100210.400,,,,,0,,,4396.8,M,6500.0,M,,*7D
$GPGGA,100210.600,,,,,0,,,4404.8,M,6500.0,M,,*73
$GPGGA,100210.800,,,,,0,,,4406.6,M,6500.0,M,,*71
$GPGGA,100211.000,,,,,0,,,4412.3,M,6500.0,M,,*78
$GPGGA,100211.200,,,,,0,,,4414.6,M,6500.0,M,,*79
$GPGGA,100211.400,,,,,0,,,4419.3,M,6500.0,M,,*77
$GPGGA,100211.600,,,,,0,,,4427.5,M,6500.0,M,,*7E
$GPGGA,100211.800,,,,,0,,,4435.9,M,6500.0,M,,*7F
$GPGGA,100212.000,,,,,0,,,4439.6,M,6500.0,M,,*77
$GPGGA,100212.200,,,,,0,,,4444.4,M,6500.0,M,,*7D
$GPGGA,100212.400,,,,,0,,,4447.8,M,6500.0,M,,*74
$GPGGA,100212.600,,,,,0,,,4446.7,M,6500.0,M,,*78
$GPGGA,100212.800,,,,,0,,,4445.1,M,6500.0,M,,*73
$GPGGA,100213.000,,,,,0,,,4450.6,M,6500.0,M,,*79
$GPGGA,100213.200,,,,,0,,,4446.5,M,6500.0,M,,*7F
$GPGGA,100213.400,,,,,0,,,4450.6,M,6500.0,M,,*7D
$GPGGA,100213.600,,,,,0,,,4452.4,M,6500.0,M,,*7F
$GPGGA,100213.800,,,,,0,,,4453.0,M,6500.0,M,,*74
$GPGGA,100214.000,,,,,0,,,4448.5,M,6500.0,M,,*74
$GPGGA,100214.200,,,,,0,,,4453.3,M,6500.0,M,,*7A
$GPGGA,100214.400,,,,,0,,,4453.7,M,6500.0,M,,*78
$GPGGA,100214.600,,,,,0,,,4455.1,M,6500.0,M,,*7A
$GPGGA,100214.800,,,,,0,,,4454.2,M,6500.0,M,,*76
$GPGGA,100215.000,,,,,0,,,4454.1,M,6500.0,M,,*7C
$GPGGA,100215.200,,,,,0,,,4461.1,M,6500.0,M,,*78
$GPGGA,100215.400,,,,,0,,,4464.4,M,6500.0,M,,*7E
$GPGGA,100215.600,,,,,0,,,4465.5,M,6500.0,M,,*7C
$GPGGA,100215.800,,,,,0,,,4469.4,M,6500.0,M,,*7F
$GPGGA,100216.000,,,,,0,,,4471.5,M,6500.0,M,,*7C
$GPGGA,100216.200,,,,,0,,,4474.9,M,6500.0,M,,*77
$GPGGA,100216.400,,,,,0,,,4478.1,M,6500.0,M,,*75
$GPGGA,100216.600,,,,,0,,,4475.4,M,6500.0,M,,*7F
$GPGGA,100216.800,,,,,0,,,4483.3,M,6500.0,M,,*7F
$GPGGA,100217.000,,,,,0,,,4483.7,M,6500.0,M,,*72
$GPGGA,100217.200,,,,,0,,,4485.9,M,6500.0,M,,*78
$GPGGA,100217.400,,,,,0,,,4485.9,M,6500.0,M,,*7E
$GPGGA,100217.600,,,,,0,,,4487.4,M,6500.0,M,,*73
$GPGGA,100217.800,,,,,0,,,4487.7,M,6500.0,M,,*7E
$GPGGA,100218.000,,,,,0,,,4486.4,M,6500.0,M,,*7B
$GPGGA,100218.200,,,,,0,,,4486.8,M,6500.0,M,,*75
$GPGGA,100218.400,,,,,0,,,4483.7,M,6500.0,M,,*79
$GPGGA,100218.600,,,,,0,,,4484.2,M,6500.0,M,,*79
$GPGGA,100218.800,,,,,0,,,4479.4,M,6500.0,M,,*73
$GPGGA,100219.000,,,,,0,,,4476.6,M,6500.0,M,,*77
$GPGGA,100219.200,,,,,0,,,4469.7,M,6500.0,M,,*7A
$GPGGA,100219.400,,,,,0,,,4465.9,M,6500.0,M,,*7E
$GPGGA,100219.600,,,,,0,,,4454.5,M,6500.0,M,,*72
$GPGGA,100219.800,,,,,0,,,4445.9,M,6500.0,M,,*70
$GPGGA,100220.000,,,,,0,,,4435.5,M,6500.0,M,,*79
$GPGGA,100220.200,,,,,0,,,4433.3,M,6500.0,M,,*7B
$GPGGA,100220.400,,,,,0,,,4425.0,M,6500.0,M,,*79
$GPGGA,100220.600,,,,,0,,,4418.5,M,6500.0,M,,*70
$GPGGA,100220.800,,,,,0,,,4414.8,M,6500.0,M,,*7F
$GPGGA,100221.000,,,,,0,,,4409.9,M,6500.0,M,,*7B
$GPGGA,100221.200,,,,,0,,,4403.4,M,6500.0,M,,*7E
$GPGGA,100221.400,,,,,0,,,4398.9,M,6500.0,M,,*70
$GPGGA,100221.600,,,,,0,,,4393.7,M,6500.0,M,,*77
$GPGGA,100221.800,,,,,0,,,4395.4,M,6500.0,M,,*7C
$GPGGA,100222.000,,,,,0,,,4389.7,M,6500.0,M,,*79
$GPGGA,100222.200,,,,,0,,,4387.5,M,6500.0,M,,*77
$GPGGA,100222.400,,,,,0,,,4380.7,M,6500.0,M,,*74
$GPGGA,100222.600,,,,,0,,,4377.2,M,6500.0,M,,*7B
$GPGGA,100222.800,,,,,0,,,4369.8,M,6500.0,M,,*70
$GPGGA,100223.000,,,,,0,,,4368.4,M,6500.0,M,,*74
$GPGGA,100223.200,,,,,0,,,4361.1,M,6500.0,M,,*7A
$GPGGA,100223.400,,,,,0,,,4357.6,M,6500.0,M,,*7E
$GPGGA,100223.600,,,,,0,,,4356.9,M,6500.0,M,,*72
$GPGGA,100223.800,,,,,0,,,4350.1,M,6500.0,M,,*72
$GPGGA,100224.000,,,,,0,,,4348.3,M,6500.0,M,,*76
$GPGGA,100224.200,,,,,0,,,4344.1,M,6500.0,M,,*7A
$GPGGA,100224.400,,,,,0,,,4341.2,M,6500.0,M,,*7A
$GPGGA,100224.600,,,,,0,,,4335.6,M,6500.0,M,,*7F
$GPGGA,100224.800,,,,,0,,,4329.9,M,6500.0,M,,*73
$GPGGA,100225.000,,,,,0,,,4327.2,M,6500.0,M,,*7F
$GPGGA,100225.200,,,,,0,,,4326.8,M,6500.0,M,,*76
$GPGGA,100225.400,,,,,0,,,4319.7,M,6500.0,M,,*73
$GPGGA,100225.600,,,,,0,,,4312.7,M,6500.0,M,,*7A
$GPGGA,100225.800,,,,,0,,,4309.1,M,6500.0,M,,*78
$GPGGA,100226.000,,,,,0,,,4301.9,M,6500.0,M,,*73
$GPGGA,100226.200,,,,,0,,,4293.4,M,6500.0,M,,*76
$GPGGA,100226.400,,,,,0,,,4287.1,M,6500.0,M,,*70
$GPGGA,100226.600,,,,,0,,,4278.4,M,6500.0,M,,*77
$GPGGA,100226.800,,,,,0,,,4271.0,M,6500.0,M,,*74
$GPGGA,100227.000,,,,,0,,,4267.5,M,6500.0,M,,*7F
$GPGGA,100227.200,,,,,0,,,4264.9,M,6500.0,M,,*72
$GPGGA,100227.400,,,,,0,,,4263.0,M,6500.0,M,,*7A
$GPGGA,100227.600,,,,,0,,,4260.2,M,6500.0,M,,*79
$GPGGA,100227.800,,,,,0,,,4256.0,M,6500.0,M,,*70
$GPGGA,100228.000,,,,,0,,,4257.8,M,6500.0,M,,*7E
$GPGGA,100228.200,,,,,0,,,4249.6,M,6500.0,M,,*7D
$GPGGA,100228.400,,,,,0,,,4249.3,M,6500.0,M,,*7E
$GPGGA,100228.600,,,,,0,,,4255.9,M,6500.0,M,,*7B
$GPGGA,100228.800,,,,,0,,,4251.6,M,6500.0,M,,*7E
$GPGGA,100229.000,,,,,0,,,4251.2,M,6500.0,M,,*73
$GPGGA,100229.200,,,,,0,,,4252.9,M,6500.0,M,,*79
$GPGGA,100229.400,,,,,0,,,4251.0,M,6500.0,M,,*75
$GPGGA,100229.600,,,,,0,,,4252.6,M,6500.0,M,,*72
$GPGGA,100229.800,,,,,0,,,4254.8,M,6500.0,M,,*74
$GPGGA,100230.000,,,,,0,,,4252.0,M,6500.0,M,,*7A
$GPGGA,100230.200,,,,,0,,,4255.0,M,6500.0,M,,*7F
$GPGGA,100230.400,,,,,0,,,4253.1,M,6500.0,M,,*7E
$GPGGA,100230.600,,,,,0,,,4253.7,M,6500.0,M,,*7A
$GPGGA,100230.800,,,,,0,,,4252.4,M,6500.0,M,,*76
$GPGGA,100231.000,,,,,0,,,4254.4,M,6500.0,M,,*79
$GPGGA,100231.200,,,,,0,,,4252.9,M,6500.0,M,,*70
$GPGGA,100231.400,,,,,0,,,4254.7,M,6500.0,M,,*7E
$GPGGA,100231.600,,,,,0,,,4253.5,M,6500.0,M,,*79
$GPGGA,100231.800,,,,,0,,,4255.1,M,6500.0,M,,*75
$GPGGA,100232.000,,,,,0,,,4256.0,M,6500.0,M,,*7C
$GPGGA,100232.200,,,,,0,,,4254.2,M,6500.0,M,,*7E
$GPGGA,100232.400,,,,,0,,,4256.0,M,6500.0,M,,*78
$GPGGA,100232.600,,,,,0,,,4261.1,M,6500.0,M,,*7F
$GPGGA,100232.800,,,,,0,,,4256.0,M,6500.0,M,,*74
$GPGGA,100233.000,,,,,0,,,4260.3,M,6500.0,M,,*7B
$GPGGA,100233.200,,,,,0,,,4259.4,M,6500.0,M,,*74
$GPGGA,100233.400,,,,,0,,,4265.2,M,6500.0,M,,*7B
$GPGGA,100233.600,,,,,0,,,4264.8,M,6500.0,M,,*72
$GPGGA,100233.800,,,,,0,,,4272.0,M,6500.0,M,,*73
$GPGGA,100234.000,,,,,0,,,4279.5,M,6500.0,M,,*72
$GPGGA,100234.200,,,,,0,,,4285.0,M,6500.0,M,,*76
$GPGGA,100234.400,,,,,0,,,4286.2,M,6500.0,M,,*71
$GPGGA,100234.600,,,,,0,,,4292.8,M,6500.0,M,,*7C
$GPGGA,100234.800,,,,,0,,,4301.1,M,6500.0,M,,*70
$GPGGA,100235.000,,,,,0,,,4300.7,M,6500.0,M,,*7E
$GPGGA,100235.200,,,,,0,,,4313.0,M,6500.0,M,,*79
$GPGGA,100235.400,,,,,0,,,4310.2,M,6500.0,M,,*7E
$GPGGA,100235.600,,,,,0,,,4316.3,M,6500.0,M,,*7B
$GPGGA,100235.800,,,,,0,,,4325.3,M,6500.0,M,,*75
$GPGGA,100236.000,,,,,0,,,4322.1,M,6500.0,M,,*7B
$GPGGA,100236.200,,,,,0,,,4328.4,M,6500.0,M,,*76
$GPGGA,100236.400,,,,,0,,,4331.9,M,6500.0,M,,*75
$GPGGA,100236.600,,,,,0,,,4333.2,M,6500.0,M,,*7E
$GPGGA,100236.800,,,,,0,,,4335.6,M,6500.0,M,,*72
$GPGGA,100237.000,,,,,0,,,4334.5,M,6500.0,M,,*79
$GPGGA,100237.200,,,,,0,,,4333.5,M,6500.0,M,,*7C
$GPGGA,100237.400,,,,,0,,,4331.2,M,6500.0,M,,*7F
$GPGGA,100237.600,,,,,0,,,4332.0,M,6500.0,M,,*7C
$GPGGA,100237.800,,,,,0,,,4325.8,M,6500.0,M,,*7C
$GPGGA,100238.000,,,,,0,,,4323.9,M,6500.0,M,,*7C
$GPGGA,100238.200,,,,,0,,,4319.2,M,6500.0,M,,*7C
$GPGGA,100238.400,,,,,0,,,4315.6,M,6500.0,M,,*72
$GPGGA,100238.600,,,,,0,,,4309.7,M,6500.0,M,,*7C
$GPGGA,100238.800,,,,,0,,,4305.9,M,6500.0,M,,*70
$GPGGA,100239.000,,,,,0,,,4301.1,M,6500.0,M,,*75
$GPGGA,100239.200,,,,,0,,,4302.0,M,6500.0,M,,*75
$GPGGA,100239.400,,,,,0,,,4298.0,M,6500.0,M,,*71
$GPGGA,100239.600,,,,,0,,,4287.8,M,6500.0,M,,*75
$GPGGA,100239.800,,,,,0,,,4285.6,M,6500.0,M,,*77
$GPGGA,100240.000,,,,,0,,,4279.0,M,6500.0,M,,*74
$GPGGA,100240.200,,,,,0,,,4276.2,M,6500.0,M,,*7B
$GPGGA,100240.400,,,,,0,,,4272.4,M,6500.0,M,,*7F
$GPGGA,100240.600,,,,,0,,,4263.6,M,6500.0,M,,*7F
$GPGGA,100240.800,,,,,0,,,4258.1,M,6500.0,M,,*7E
$GPGGA,100241.000,,,,,0,,,4253.5,M,6500.0,M,,*78
$GPGGA,100241.200,,,,,0,,,4246.2,M,6500.0,M,,*79
$GPGGA,100241.400,,,,,0,,,4242.5,M,6500.0,M,,*7C
$GPGGA,100241.600,,,,,0,,,4236.9,M,6500.0,M,,*71
$GPGGA,100241.800,,,,,0,,,4234.5,M,6500.0,M,,*71
$GPGGA,100242.000,,,,,0,,,4229.3,M,6500.0,M,,*70
$GPGGA,100242.200,,,,,0,,,4228.6,M,6500.0,M,,*76
$GPGGA,100242.400,,,,,0,,,4220.9,M,6500.0,M,,*77
$GPGGA,100242.600,,,,,0,,,4216.8,M,6500.0,M,,*71
$GPGGA,100242.800,,,,,0,,,4211.6,M,6500.0,M,,*76
$GPGGA,100243.000,,,,,0,,,4204.6,M,6500.0,M,,*7B
$GPGGA,100243.200,,,,,0,,,4203.0,M,6500.0,M,,*78
$GPGGA,100243.400,,,,,0,,,4199.3,M,6500.0,M,,*7D
$GPGGA,100243.600,,,,,0,,,4197.6,M,6500.0,M,,*74
$GPGGA,100243.800,,,,,0,,,4197.9,M,6500.0,M,,*75
$GPGGA,100244.000,,,,,0,,,4200.1,M,6500.0,M,,*7F
$GPGGA,100244.200,,,,,0,,,4202.7,M,6500.0,M,,*79
$GPGGA,100244.400,,,,,0,,,4204.5,M,6500.0,M,,*7B
$GPGGA,100244.600,,,,,0,,,4205.4,M,6500.0,M,,*79
$GPGGA,100244.800,,,,,0,,,4211.8,M,6500.0,M,,*7E
$GPGGA,100245.000,,,,,0,,,4209.5,M,6500.0,M,,*73
$GPGGA,100245.200,,,,,0,,,4215.1,M,6500.0,M,,*78
$GPGGA,100245.400,,,,,0,,,4216.1,M,6500.0,M,,*7D
$GPGGA,100245.600,,,,,0,,,4222.8,M,6500.0,M,,*71
$GPGGA,100245.800,,,,,0,,,4225.1,M,6500.0,M,,*71
$GPGGA,100246.000,,,,,0,,,4228.4,M,6500.0,M,,*72
$GPGGA,100246.200,,,,,0,,,4227.9,M,6500.0,M,,*72
$GPGGA,100246.400,,,,,0,,,4228.9,M,6500.0,M,,*7B
$GPGGA,100246.600,,,,,0,,,4233.8,M,6500.0,M,,*72
$GPGGA,100246.800,,,,,0,,,4234.5,M,6500.0,M,,*76
$GPGGA,100247.000,,,,,0,,,4233.0,M,6500.0,M,,*7D
$GPGGA,100247.200,,,,,0,,,4239.9,M,6500.0,M,,*7C
$GPGGA,100247.400,,,,,0,,,4242.4,M,6500.0,M,,*7B
$GPGGA,100247.600,,,,,0,,,4240.0,M,6500.0,M,,*7F
$GPGGA,100247.800,,,,,0,,,4242.9,M,6500.0,M,,*7A
$GPGGA,100248.000,,,,,0,,,4243.7,M,6500.0,M,,*72
$GPGGA,100248.200,,,,,0,,,4245.4,M,6500.0,M,,*75
$GPGGA,100248.400,,,,,0,,,4248.3,M,6500.0,M,,*79
$GPGGA,100248.600,,,,,0,,,4256.9,M,6500.0,M,,*7E
$GPGGA,100248.800,,,,,0,,,4259.0,M,6500.0,M,,*76
$GPGGA,100249.000,,,,,0,,,4265.7,M,6500.0,M,,*77
$GPGGA,100249.200,,,,,0,,,4268.3,M,6500.0,M,,*7C
$GPGGA,100249.400,,,,,0,,,4270.6,M,6500.0,M,,*76
$GPGGA,100249.600,,,,,0,,,4276.9,M,6500.0,M,,*7D
$GPGGA,100249.800,,,,,0,,,4278.2,M,6500.0,M,,*76
$GPGGA,100250.000,,,,,0,,,4282.4,M,6500.0,M,,*75
$GPGGA,100250.200,,,,,0,,,4284.0,M,6500.0,M,,*75
$GPGGA,100250.400,,,,,0,,,4285.4,M,6500.0,M,,*76
$GPGGA,100250.600,,,,,0,,,4289.3,M,6500.0,M,,*7F
$GPGGA,100250.800,,,,,0,,,4294.9,M,6500.0,M,,*77
$GPGGA,100251.000,,,,,0,,,4298.5,M,6500.0,M,,*7E
$GPGGA,100251.200,,,,,0,,,4301.4,M,6500.0,M,,*7C
$GPGGA,100251.400,,,,,0,,,4299.9,M,6500.0,M,,*77
$GPGGA,100251.600,,,,,0,,,4304.7,M,6500.0,M,,*7E
$GPGGA,100251.800,,,,,0,,,4309.5,M,6500.0,M,,*7F
$GPGGA,100252.000,,,,,0,,,4308.2,M,6500.0,M,,*72
$GPGGA,100252.200,,,,,0,,,4316.3,M,6500.0,M,,*7E
$GPGGA,100252.400,,,,,0,,,4311.5,M,6500.0,M,,*79
$GPGGA,100252.600,,,,,0,,,4317.1,M,6500.0,M,,*79
$GPGGA,100252.800,,,,,0,,,4313.0,M,6500.0,M,,*72
$GPGGA,100253.000,,,,,0,,,4315.8,M,6500.0,M,,*75
$GPGGA,100253.200,,,,,0,,,4319.2,M,6500.0,M,,*71
$GPGGA,100253.400,,,,,0,,,4316.9,M,6500.0,M,,*73
$GPGGA,100253.600,,,,,0,,,4321.9,M,6500.0,M,,*75
$GPGGA,100253.800,,,,,0,,,4327.0,M,6500.0,M,,*74
$GPGGA,100254.000,,,,,0,,,4322.5,M,6500.0,M,,*7B
$GPGGA,100254.200,,,,,0,,,4328.1,M,6500.0,M,,*77
$GPGGA,100254.400,,,,,0,,,4328.5,M,6500.0,M,,*75
$GPGGA,100254.600,,,,,0,,,4333.5,M,6500.0,M,,*7D
$GPGGA,100254.800,,,,,0,,,4331.2,M,6500.0,M,,*76
$GPGGA,100255.000,,,,,0,,,4335.6,M,6500.0,M,,*7F
$GPGGA,100255.200,,,,,0,,,4338.6,M,6500.0,M,,*70
$GPGGA,100255.400,,,,,0,,,4338.3,M,6500.0,M,,*73
$GPGGA,100255.600,,,,,0,,,4345.6,M,6500.0,M,,*7E
$GPGGA,100255.800,,,,,0,,,4344.4,M,6500.0,M,,*73
$GPGGA,100256.000,,,,,0,,,4346.9,M,6500.0,M,,*77
$GPGGA,100256.200,,,,,0,,,4349.8,M,6500.0,M,,*7B
$GPGGA,100256.400,,,,,0,,,4350.7,M,6500.0,M,,*7A
$GPGGA,100256.600,,,,,0,,,4350.4,M,6500.0,M,,*7B
$GPGGA,100256.800,,,,,0,,,4350.9,M,6500.0,M,,*78
$GPGGA,100257.000,,,,,0,,,4350.3,M,6500.0,M,,*7B
$GPGGA,100257.200,,,,,0,,,4347.6,M,6500.0,M,,*7A
$GPGGA,100257.400,,,,,0,,,4345.6,M,6500.0,M,,*7E
$GPGGA,100257.600,,,,,0,,,4341.3,M,6500.0,M,,*7D
$GPGGA,100257.800,,,,,0,,,4349.8,M,6500.0,M,,*70
$GPGGA,100258.000,,,,,0,,,4351.0,M,6500.0,M,,*76
$GPGGA,100258.200,,,,,0,,,4351.5,M,6500.0,M,,*71
$GPGGA,100258.400,,,,,0,,,4354.0,M,6500.0,M,,*77
$GPGGA,100258.600,,,,,0,,,4360.4,M,6500.0,M,,*76
$GPGGA,100258.800,,,,,0,,,4363.0,M,6500.0,M,,*7F
$GPGGA,100259.000,,,,,0,,,4368.4,M,6500.0,M,,*79
$GPGGA,100259.200,,,,,0,,,4370.9,M,6500.0,M,,*7F
$GPGGA,100259.400,,,,,0,,,4376.1,M,6500.0,M,,*77
$GPGGA,100259.600,,,,,0,,,4385.8,M,6500.0,M,,*70
$GPGGA,100259.800,,,,,0,,,4382.2,M,6500.0,M,,*73
$GPGGA,100300.000,,,,,0,,,4393.3,M,6500.0,M,,*77
$GPGGA,100300.200,,,,,0,,,4392.0,M,6500.0,M,,*77
$GPGGA,100300.400,,,,,0,,,4403.0,M,6500.0,M,,*7E
$GPGGA,100300.600,,,,,0,,,4407.7,M,6500.0,M,,*7F
$GPGGA,100300.800,,,,,0,,,4409.2,M,6500.0,M,,*7A
$GPGGA,100301.000,,,,,0,,,4413.8,M,6500.0,M,,*72
$GPGGA,100301.200,,,,,0,,,4421.1,M,6500.0,M,,*78
$GPGGA,100301.400,,,,,0,,,4426.0,M,6500.0,M,,*78
$GPGGA,100301.600,,,,,0,,,4431.1,M,6500.0,M,,*7D
$GPGGA,100301.800,,,,,0,,,4435.0,M,6500.0,M,,*76
$GPGGA,100302.000,,,,,0,,,4430.2,M,6500.0,M,,*7A
$GPGGA,100302.200,,,,,0,,,4434.9,M,6500.0,M,,*77
$GPGGA,100302.400,,,,,0,,,4441.7,M,6500.0,M,,*7D
$GPGGA,100302.600,,,,,0,,,4441.4,M,6500.0,M,,*7C
$GPGGA,100302.800,,,,,0,,,4443.3,M,6500.0,M,,*77
$GPGGA,100303.000,,,,,0,,,4446.7,M,6500.0,M,,*7F
$GPGGA,100303.200,,,,,0,,,4445.3,M,6500.0,M,,*7A
$GPGGA,100303.400,,,,,0,,,4440.6,M,6500.0,M,,*7C
$GPGGA,100303.600,,,,,0,,,4441.5,M,6500.0,M,,*7C
$GPGGA,100303.800,,,,,0,,,4439.5,M,6500.0,M,,*7D
$GPGGA,100304.000,,,,,0,,,4435.9,M,6500.0,M,,*72
$GPGGA,100304.200,,,,,0,,,4432.9,M,6500.0,M,,*77
$GPGGA,100304.400,,,,,0,,,4427.8,M,6500.0,M,,*74
$GPGGA,100304.600,,,,,0,,,4422.2,M,6500.0,M,,*79
$GPGGA,100304.800,,,,,0,,,4420.7,M,6500.0,M,,*70
$GPGGA,100305.000,,,,,0,,,4415.8,M,6500.0,M,,*70
$GPGGA,100305.200,4328.42943,N,04234.14306,E,1,08,1.0,4411.3,M,6500.0,M,,*64
$GPGGA,100305.400,4328.42788,N,04234.14860,E,1,08,1.0,4409.9,M,6500.0,M,,*63
$GPGGA,100305.600,4328.42632,N,04234.15402,E,1,08,1.0,4406.8,M,6500.0,M,,*66
$GPGGA,100305.800,4328.42477,N,04234.15940,E,1,08,1.0,4402.3,M,6500.0,M,,*6F
$GPGGA,100306.000,4328.42323,N,04234.16465,E,1,08,1.0,4398.2,M,6500.0,M,,*6E
$GPGGA,100306.200,4328.42174,N,04234.16980,E,1,08,1.0,4398.5,M,6500.0,M,,*6D
$GPGGA,100306.400,4328.42029,N,04234.17479,E,1,08,1.0,4395.1,M,6500.0,M,,*61
$GPGGA,100306.600,4328.41880,N,04234.17978,E,1,08,1.0,4391.8,M,6500.0,M,,*6A
$GPGGA,100306.800,4328.41735,N,04234.18465,E,1,08,1.0,4388.0,M,6500.0,M,,*6B
$GPGGA,100307.000,4328.41587,N,04234.18949,E,1,08,1.0,4390.6,M,6500.0,M,,*65
$GPGGA,100307.200,4328.41430,N,04234.19447,E,1,08,1.0,4384.3,M,6500.0,M,,*68
$GPGGA,100307.400,4328.41266,N,04234.19962,E,1,08,1.0,4386.6,M,6500.0,M,,*66
$GPGGA,100307.600,4328.41099,N,04234.20469,E,1,08,1.0,4382.1,M,6500.0,M,,*69
$GPGGA,100307.800,4328.40933,N,04234.20982,E,1,08,1.0,4380.3,M,6500.0,M,,*67
$GPGGA,100308.000,4328.40756,N,04234.21512,E,1,08,1.0,4379.4,M,6500.0,M,,*68
$GPGGA,100308.200,4328.40571,N,04234.22048,E,1,08,1.0,4375.6,M,6500.0,M,,*6A
$GPGGA,100308.400,4328.40381,N,04234.22597,E,1,08,1.0,4369.2,M,6500.0,M,,*6B
$GPGGA,100308.600,4328.40185,N,04234.23149,E,1,08,1.0,4364.8,M,6500.0,M,,*6E
$GPGGA,100308.800,4328.39994,N,04234.23692,E,1,08,1.0,4364.3,M,6500.0,M,,*6C
$GPGGA,100309.000,4328.39807,N,04234.24222,E,1,08,1.0,4364.3,M,6500.0,M,,*66
$GPGGA,100309.200,4328.39611,N,04234.24760,E,1,08,1.0,4361.9,M,6500.0,M,,*61
$GPGGA,100309.400,4328.39410,N,04234.25306,E,1,08,1.0,4359.5,M,6500.0,M,,*66
$GPGGA,100309.600,4328.39206,N,04234.25854,E,1,08,1.0,4357.2,M,6500.0,M,,*60
$GPGGA,100309.800,4328.38990,N,04234.26420,E,1,08,1.0,4353.9,M,6500.0,M,,*68
$GPGGA,100310.000,4328.38776,N,04234.26983,E,1,08,1.0,4353.0,M,6500.0,M,,*63
$GPGGA,100310.200,4328.38558,N,04234.27538,E,1,08,1.0,4349.9,M,6500.0,M,,*60
$GPGGA,100310.400,4328.38345,N,04234.28083,E,1,08,1.0,4344.8,M,6500.0,M,,*6A
$GPGGA,100310.600,4328.38128,N,04234.28627,E,1,08,1.0,4341.7,M,6500.0,M,,*63
$GPGGA,100310.800,4328.37908,N,04234.29168,E,1,08,1.0,4341.5,M,6500.0,M,,*67
$GPGGA,100311.000,4328.37684,N,04234.29724,E,1,08,1.0,4340.2,M,6500.0,M,,*6D
$GPGGA,100311.200,4328.37464,N,04234.30262,E,1,08,1.0,4332.3,M,6500.0,M,,*68
$GPGGA,100311.400,4328.37240,N,04234.30813,E,1,08,1.0,4333.1,M,6500.0,M,,*61
$GPGGA,100311.600,4328.37008,N,04234.31356,E,1,08,1.0,4329.3,M,6500.0,M,,*6F
$GPGGA,100311.800,4328.36772,N,04234.31911,E,1,08,1.0,4330.1,M,6500.0,M,,*69
$GPGGA,100312.000,4328.36538,N,04234.32447,E,1,08,1.0,4327.3,M,6500.0,M,,*67
$GPGGA,100312.200,4328.36315,N,04234.32964,E,1,08,1.0,4326.9,M,6500.0,M,,*6B
$GPGGA,100312.400,4328.36081,N,04234.33498,E,1,08,1.0,4324.3,M,6500.0,M,,*64
$GPGGA,100312.600,4328.35848,N,04234.34024,E,1,08,1.0,4325.5,M,6500.0,M,,*6B
$GPGGA,100312.800,4328.35615,N,04234.34549,E,1,08,1.0,4320.6,M,6500.0,M,,*6B
$GPGGA,100313.000,4328.35382,N,04234.35062,E,1,08,1.0,4320.3,M,6500.0,M,,*61
$GPGGA,100313.200,4328.35154,N,04234.35560,E,1,08,1.0,4315.9,M,6500.0,M,,*61
$GPGGA,100313.400,4328.34925,N,04234.36050,E,1,08,1.0,4318.2,M,6500.0,M,,*6B
$GPGGA,100313.600,4328.34700,N,04234.36532,E,1,08,1.0,4316.4,M,6500.0,M,,*69
$GPGGA,100313.800,4328.34474,N,04234.37010,E,1,08,1.0,4314.5,M,6500.0,M,,*60
$GPGGA,100314.000,4328.34242,N,04234.37501,E,1,08,1.0,4309.5,M,6500.0,M,,*65
$GPGGA,100314.200,4328.33999,N,04234.38001,E,1,08,1.0,4312.6,M,6500.0,M,,*6E
$GPGGA,100314.400,4328.33758,N,04234.38493,E,1,08,1.0,4310.4,M,6500.0,M,,*64
