$GPGGA,100000.000,5132.22000,N,05501.98000,E,1,08,1.0,377.1,M,500.0,M,,*66
$GPGGA,100001.000,5132.20667,N,05502.00686,E,1,08,1.0,376.9,M,500.0,M,,*61
$GPGGA,100002.000,5132.19317,N,05502.03508,E,1,08,1.0,376.7,M,500.0,M,,*62
$GPGGA,100003.000,5132.18007,N,05502.06039,E,1,08,1.0,378.9,M,500.0,M,,*62
$GPGGA,100004.000,5132.16703,N,05502.08540,E,1,08,1.0,381.6,M,500.0,M,,*64
$GPGGA,100005.000,5132.15394,N,05502.11086,E,1,08,1.0,383.5,M,500.0,M,,*6A
$GPGGA,100006.000,5132.14054,N,05502.13870,E,1,08,1.0,385.0,M,500.0,M,,*67
$GPGGA,100007.000,5132.12713,N,05502.16672,E,1,08,1.0,383.2,M,500.0,M,,*69
$GPGGA,100008.000,5132.11402,N,05502.19279,E,1,08,1.0,385.3,M,500.0,M,,*61
$GPGGA,100009.000,5132.10059,N,05502.22148,E,1,08,1.0,384.5,M,500.0,M,,*65
$GPGGA,100010.000,5132.08724,N,05502.24987,E,1,08,1.0,383.3,M,500.0,M,,*65
$GPGGA,100011.000,5132.07430,N,05502.27547,E,1,08,1.0,378.7,M,500.0,M,,*6E
$GPGGA,100012.000,5132.06125,N,05502.30223,E,1,08,1.0,381.8,M,500.0,M,,*67
$GPGGA,100013.000,5132.04829,N,05502.32865,E,1,08,1.0,381.2,M,500.0,M,,*61
$GPGGA,100014.000,5132.03530,N,05502.35571,E,1,08,1.0,382.1,M,500.0,M,,*6B
$GPGGA,100015.000,5132.02264,N,05502.38079,E,1,08,1.0,381.5,M,500.0,M,,*6A
$GPGGA,100016.000,5132.01042,N,05502.40335,E,1,08,1.0,375.1,M,500.0,M,,*67
$GPGGA,100017.000,5131.99835,N,05502.42535,E,1,08,1.0,378.0,M,500.0,M,,*64
$GPGGA,100018.000,5131.98599,N,05502.44965,E,1,08,1.0,380.9,M,500.0,M,,*60
$GPGGA,100019.000,5131.97399,N,05502.47209,E,1,08,1.0,381.4,M,500.0,M,,*66
$GPGGA,100020.000,5131.96226,N,05502.49329,E,1,08,1.0,379.8,M,500.0,M,,*6E
$GPGGA,100021.000,5131.95057,N,05502.51470,E,1,08,1.0,379.8,M,500.0,M,,*6A
$GPGGA,100022.000,5131.93861,N,05502.53840,E,1,08,1.0,381.0,M,500.0,M,,*60
$GPGGA,100023.000,5131.92657,N,05502.56331,E,1,08,1.0,381.4,M,500.0,M,,*67
$GPGGA,100024.000,5131.91446,N,05502.58956,E,1,08,1.0,378.7,M,500.0,M,,*61
$GPGGA,100025.000,5131.90257,N,05502.61478,E,1,08,1.0,379.3,M,500.0,M,,*69
$GPGGA,100026.000,5131.89063,N,05502.64137,E,1,08,1.0,380.3,M,500.0,M,,*6A
$GPGGA,100027.000,5131.87833,N,05502.67269,E,1,08,1.0,378.1,M,500.0,M,,*66
$GPGGA,100028.000,5131.86635,N,05502.70179,E,1,08,1.0,380.9,M,500.0,M,,*6B
$GPGGA,100029.000,5131.85426,N,05502.73367,E,1,08,1.0,380.6,M,500.0,M,,*68
$GPGGA,100030.000,5131.84220,N,05502.76695,E,1,08,1.0,382.2,M,500.0,M,,*6A
$GPGGA,100031.000,5131.83032,N,05502.79976,E,1,08,1.0,376.6,M,500.0,M,,*6F
$GPGGA,100032.000,5131.81868,N,05502.83135,E,1,08,1.0,381.6,M,500.0,M,,*6B
$GPGGA,100033.000,5131.80741,N,05502.86013,E,1,08,1.0,379.4,M,500.0,M,,*6A
$GPGGA,100034.000,5131.79624,N,05502.88960,E,1,08,1.0,378.9,M,500.0,M,,*66
$GPGGA,100035.000,5131.78511,N,05502.92058,E,1,08,1.0,380.6,M,500.0,M,,*62
$GPGGA,100036.000,5131.77388,N,05502.95592,E,1,08,1.0,380.6,M,500.0,M,,*6C
$GPGGA,100037.000,5131.76291,N,05502.98973,E,1,08,1.0,378.5,M,500.0,M,,*6F
$GPGGA,100038.000,5131.75223,N,05503.02176,E,1,08,1.0,381.3,M,500.0,M,,*65
$GPGGA,100039.000,5131.74180,N,05503.05270,E,1,08,1.0,379.2,M,500.0,M,,*6B
$GPGGA,100040.000,5131.73147,N,05503.08513,E,1,08,1.0,378.0,M,500.0,M,,*65
$GPGGA,100041.000,5131.72138,N,05503.11698,E,1,08,1.0,375.5,M,500.0,M,,*6D
$GPGGA,100042.000,5131.71159,N,05503.14685,E,1,08,1.0,378.1,M,500.0,M,,*6A
$GPGGA,100043.000,5131.70194,N,05503.17776,E,1,08,1.0,381.9,M,500.0,M,,*6B
$GPGGA,100044.000,5131.69250,N,05503.20879,E,1,08,1.0,380.4,M,500.0,M,,*67
$GPGGA,100045.000,5131.68326,N,05503.24031,E,1,08,1.0,381.5,M,500.0,M,,*67
$GPGGA,100046.000,5131.67416,N,05503.27363,E,1,08,1.0,379.9,M,500.0,M,,*63
$GPGGA,100047.000,5131.66537,N,05503.30505,E,1,08,1.0,381.3,M,500.0,M,,*6C
$GPGGA,100048.000,5131.65679,N,05503.33736,E,1,08,1.0,381.9,M,500.0,M,,*62
$GPGGA,100049.000,,,,,0,,,382.7,M,500.0,M,,*7F
$GPGGA,100050.000,,,,,0,,,382.2,M,500.0,M,,*72
$GPGGA,100051.000,,,,,0,,,377.4,M,500.0,M,,*7F
$GPGGA,100052.000,,,,,0,,,377.7,M,500.0,M,,*7F
$GPGGA,100053.000,,,,,0,,,379.2,M,500.0,M,,*75
$GPGGA,100054.000,,,,,0,,,372.5,M,500.0,M,,*7E
$GPGGA,100055.000,,,,,0,,,378.0,M,500.0,M,,*70
$GPGGA,100056.000,,,,,0,,,374.9,M,500.0,M,,*76
$GPGGA,100057.000,,,,,0,,,379.4,M,500.0,M,,*77
$GPGGA,100058.000,,,,,0,,,374.3,M,500.0,M,,*72
$GPGGA,100059.000,,,,,0,,,373.6,M,500.0,M,,*71
$GPGGA,100100.000,,,,,0,,,374.5,M,500.0,M,,*78
$GPGGA,100101.000,,,,,0,,,374.8,M,500.0,M,,*74
$GPGGA,100102.000,,,,,0,,,375.7,M,500.0,M,,*79
$GPGGA,100103.000,,,,,0,,,378.1,M,500.0,M,,*73
$GPGGA,100104.000,,,,,0,,,376.0,M,500.0,M,,*7B
$GPGGA,100105.000,,,,,0,,,372.7,M,500.0,M,,*79
$GPGGA,100106.000,,,,,0,,,376.2,M,500.0,M,,*7B
$GPGGA,100107.000,,,,,0,,,374.4,M,500.0,M,,*7E
$GPGGA,100108.000,,,,,0,,,374.8,M,500.0,M,,*7D
$GPGGA,100109.000,,,,,0,,,370.6,M,500.0,M,,*76
$GPGGA,100110.000,,,,,0,,,367.0,M,500.0,M,,*7E
$GPGGA,100111.000,,,,,0,,,368.2,M,500.0,M,,*72
$GPGGA,100112.000,,,,,0,,,366.3,M,500.0,M,,*7E
$GPGGA,100113.000,,,,,0,,,363.1,M,500.0,M,,*78
$GPGGA,100114.000,,,,,0,,,365.8,M,500.0,M,,*70
$GPGGA,100115.000,,,,,0,,,367.2,M,500.0,M,,*79
$GPGGA,100116.000,,,,,0,,,361.2,M,500.0,M,,*7C
$GPGGA,100117.000,,,,,0,,,363.2,M,500.0,M,,*7F
$GPGGA,100118.000,,,,,0,,,360.2,M,500.0,M,,*73
$GPGGA,100119.000,,,,,0,,,361.4,M,500.0,M,,*75
$GPGGA,100120.000,,,,,0,,,363.7,M,500.0,M,,*7E
$GPGGA,100121.000,,,,,0,,,361.0,M,500.0,M,,*7A
$GPGGA,100122.000,,,,,0,,,359.9,M,500.0,M,,*7B
$GPGGA,100123.000,,,,,0,,,358.0,M,500.0,M,,*72
$GPGGA,100124.000,,,,,0,,,356.9,M,500.0,M,,*72
$GPGGA,100125.000,,,,,0,,,357.8,M,500.0,M,,*73
$GPGGA,100126.000,,,,,0,,,350.5,M,500.0,M,,*7A
$GPGGA,100127.000,,,,,0,,,352.5,M,500.0,M,,*79
$GPGGA,100128.000,,,,,0,,,352.3,M,500.0,M,,*70
$GPGGA,100129.000,,,,,0,,,347.8,M,500.0,M,,*7E
$GPGGA,100130.000,,,,,0,,,349.3,M,500.0,M,,*73
$GPGGA,100131.000,,,,,0,,,350.1,M,500.0,M,,*78
$GPGGA,100132.000,,,,,0,,,347.7,M,500.0,M,,*7B
$GPGGA,100133.000,,,,,0,,,349.7,M,500.0,M,,*74
$GPGGA,100134.000,,,,,0,,,348.9,M,500.0,M,,*7C
$GPGGA,100135.000,,,,,0,,,345.8,M,500.0,M,,*71
$GPGGA,100136.000,,,,,0,,,346.1,M,500.0,M,,*78
$GPGGA,100137.000,,,,,0,,,340.6,M,500.0,M,,*78
$GPGGA,100138.000,,,,,0,,,342.1,M,500.0,M,,*72
$GPGGA,100139.000,,,,,0,,,345.5,M,500.0,M,,*70
$GPGGA,100140.000,,,,,0,,,345.8,M,500.0,M,,*73
$GPGGA,100141.000,,,,,0,,,340.9,M,500.0,M,,*76
$GPGGA,100142.000,,,,,0,,,337.0,M,500.0,M,,*7C
$GPGGA,100143.000,,,,,0,,,335.5,M,500.0,M,,*7A
$GPGGA,100144.000,,,,,0,,,329.2,M,500.0,M,,*77
$GPGGA,100145.000,,,,,0,,,330.3,M,500.0,M,,*7F
$GPGGA,100146.000,,,,,0,,,325.8,M,500.0,M,,*73
$GPGGA,100147.000,,,,,0,,,332.5,M,500.0,M,,*79
$GPGGA,100148.000,,,,,0,,,321.6,M,500.0,M,,*77
$GPGGA,100149.000,,,,,0,,,325.1,M,500.0,M,,*75
$GPGGA,100150.000,5131.73453,N,05505.58406,E,1,08,1.0,326.5,M,500.0,M,,*6D
$GPGGA,100151.000,5131.74499,N,05505.61920,E,1,08,1.0,319.9,M,500.0,M,,*6E
$GPGGA,100152.000,5131.75558,N,05505.65292,E,1,08,1.0,325.7,M,500.0,M,,*67
$GPGGA,100153.000,5131.76638,N,05505.68703,E,1,08,1.0,320.0,M,500.0,M,,*62
$GPGGA,100154.000,5131.77733,N,05505.72053,E,1,08,1.0,327.7,M,500.0,M,,*67
$GPGGA,100155.000,5131.78865,N,05505.75751,E,1,08,1.0,327.8,M,500.0,M,,*68
$GPGGA,100156.000,5131.80013,N,05505.79423,E,1,08,1.0,324.6,M,500.0,M,,*62
$GPGGA,100157.000,5131.81164,N,05505.82854,E,1,08,1.0,325.5,M,500.0,M,,*69
$GPGGA,100158.000,5131.82334,N,05505.86320,E,1,08,1.0,323.9,M,500.0,M,,*64
$GPGGA,100159.000,5131.83510,N,05505.89631,E,1,08,1.0,319.0,M,500.0,M,,*6E
$GPGGA,100200.000,5131.84685,N,05505.92745,E,1,08,1.0,319.6,M,500.0,M,,*67
$GPGGA,100201.000,5131.85882,N,05505.95948,E,1,08,1.0,317.7,M,500.0,M,,*65
$GPGGA,100202.000,5131.87083,N,05505.99047,E,1,08,1.0,324.4,M,500.0,M,,*64
$GPGGA,100203.000,5131.88319,N,05506.02400,E,1,08,1.0,322.7,M,500.0,M,,*69
$GPGGA,100204.000,5131.89577,N,05506.05883,E,1,08,1.0,320.2,M,500.0,M,,*66
$GPGGA,100205.000,5131.90831,N,05506.09154,E,1,08,1.0,319.0,M,500.0,M,,*67
$GPGGA,100206.000,5131.92116,N,05506.12660,E,1,08,1.0,321.7,M,500.0,M,,*6C
$GPGGA,100207.000,5131.93413,N,05506.16182,E,1,08,1.0,325.9,M,500.0,M,,*69
$GPGGA,100208.000,5131.94715,N,05506.19620,E,1,08,1.0,318.6,M,500.0,M,,*65
$GPGGA,100209.000,5131.96027,N,05506.23045,E,1,08,1.0,315.0,M,500.0,M,,*67
$GPGGA,100210.000,5131.97377,N,05506.26836,E,1,08,1.0,317.4,M,500.0,M,,*67
$GPGGA,100211.000,5131.98708,N,05506.30258,E,1,08,1.0,312.7,M,500.0,M,,*66
$GPGGA,100212.000,5132.00049,N,05506.33689,E,1,08,1.0,314.3,M,500.0,M,,*6C
$GPGGA,100213.000,5132.01367,N,05506.36795,E,1,08,1.0,307.2,M,500.0,M,,*69
$GPGGA,100214.000,5132.02648,N,05506.39502,E,1,08,1.0,311.0,M,500.0,M,,*63
$GPGGA,100215.000,5132.03932,N,05506.42190,E,1,08,1.0,310.8,M,500.0,M,,*6B
$GPGGA,100216.000,5132.05204,N,05506.44734,E,1,08,1.0,305.7,M,500.0,M,,*65
$GPGGA,100217.000,5132.06424,N,05506.46915,E,1,08,1.0,306.8,M,500.0,M,,*60
$GPGGA,100218.000,5132.07669,N,05506.49216,E,1,08,1.0,305.7,M,500.0,M,,*6E
$GPGGA,100219.000,5132.08948,N,05506.51706,E,1,08,1.0,302.4,M,500.0,M,,*65
$GPGGA,100220.000,5132.10270,N,05506.54471,E,1,08,1.0,302.4,M,500.0,M,,*60
$GPGGA,100221.000,5132.11578,N,05506.57104,E,1,08,1.0,300.2,M,500.0,M,,*6F
$GPGGA,100222.000,5132.12875,N,05506.59634,E,1,08,1.0,295.6,M,500.0,M,,*6C
$GPGGA,100223.000,5132.14182,N,05506.62210,E,1,08,1.0,299.3,M,500.0,M,,*69
$GPGGA,100224.000,5132.15483,N,05506.64731,E,1,08,1.0,295.5,M,500.0,M,,*61
$GPGGA,100225.000,5132.16799,N,05506.67340,E,1,08,1.0,298.8,M,500.0,M,,*6A
$GPGGA,100226.000,5132.18120,N,05506.69965,E,1,08,1.0,292.5,M,500.0,M,,*67
$GPGGA,100227.000,5132.19427,N,05506.72487,E,1,08,1.0,291.5,M,500.0,M,,*6D
$GPGGA,100228.000,5132.20700,N,05506.74791,E,1,08,1.0,290.0,M,500.0,M,,*68
$GPGGA,100229.000,5132.21983,N,05506.77148,E,1,08,1.0,293.3,M,500.0,M,,*6C
